Business_Name,City,Latitude,Longitude,Est_Monthly_Qty
Logan Mobile & EV Repairs,Bengaluru,12.979861975735918,77.592722654199,108
Vedant Mobile & EV Repairs,Chennai,13.05645112637728,80.25973506691726,27
Chavvi Mobile & EV Repairs,Kochi,9.894044633801785,76.25390038560833,73
Lucky Mobile & EV Repairs,Chennai,13.059634105546474,80.26257290597272,106
Elijah Mobile & EV Repairs,Chennai,13.111177624267045,80.31348841035548,167
Divya Mobile & EV Repairs,Hyderabad,17.428205839812918,78.46325292961843,132
Siya Mobile & EV Repairs,Bengaluru,12.921760950934786,77.5595920971746,30
Nidhi Mobile & EV Repairs,Hyderabad,17.411211426909162,78.53666965406559,149
Daksh Mobile & EV Repairs,Chennai,13.060511271754011,80.24036784835714,147
Yadavi Mobile & EV Repairs,Hyderabad,17.34721699955326,78.50543090813952,92
Lopa Mobile & EV Repairs,Kochi,9.9248546480936,76.2474164351379,66
Varsha Mobile & EV Repairs,Kochi,9.943588533459202,76.24790180279669,153
Advik Mobile & EV Repairs,Bengaluru,12.928125124245987,77.61114303414202,192
Ekapad Mobile & EV Repairs,Hyderabad,17.409008929437473,78.45412588476549,142
Tara Mobile & EV Repairs,Chennai,13.065074609949264,80.3017800933071,164
Leela Mobile & EV Repairs,Kochi,9.930823007895617,76.31355508985821,188
Kevin Mobile & EV Repairs,Kochi,9.899499606524465,76.22982496786753,44
Udarsh Mobile & EV Repairs,Kochi,9.97033575135354,76.24076216138316,154
Ekansh Mobile & EV Repairs,Chennai,13.084844430787207,80.28910512382522,70
Rachit Mobile & EV Repairs,Chennai,13.120464641339233,80.2619750603111,25
Naksh Mobile & EV Repairs,Kochi,9.928133703864011,76.21813493204516,147
Abhimanyu Mobile & EV Repairs,Chennai,13.036479526962225,80.27360553088452,71
Onveer Mobile & EV Repairs,Kochi,9.974736919208611,76.26727111990861,118
Aryan Mobile & EV Repairs,Hyderabad,17.346272019997652,78.49475592153381,37
Vrinda Mobile & EV Repairs,Bengaluru,13.003777262090265,77.61870164126306,97
Adya Mobile & EV Repairs,Kochi,9.893891814534879,76.24029648573685,28
Deepa Mobile & EV Repairs,Kochi,9.907931735176161,76.30631368167805,106
Bina Mobile & EV Repairs,Bengaluru,12.985490525534184,77.63163284755508,149
Bachittar Mobile & EV Repairs,Bengaluru,12.969330941947918,77.59761553885073,51
Yatin Mobile & EV Repairs,Bengaluru,13.012770043200383,77.55548569893291,55
Samaksh Mobile & EV Repairs,Chennai,13.067841426925469,80.22292504937961,23
Chakradev Mobile & EV Repairs,Hyderabad,17.413714609790688,78.52346757036429,155
Anthony Mobile & EV Repairs,Kochi,9.9696342867369,76.23615665913478,115
Veda Mobile & EV Repairs,Kochi,9.938222816983005,76.27121029418456,40
Mohammed Mobile & EV Repairs,Chennai,13.130255169818012,80.27536366556043,63
Siya Mobile & EV Repairs,Chennai,13.109328530364031,80.29943463385139,152
Nitara Mobile & EV Repairs,Kochi,9.930471342068502,76.30504603159486,132
Robert Mobile & EV Repairs,Chennai,13.04860525512622,80.29783140179832,105
Vyanjana Mobile & EV Repairs,Chennai,13.07499088151079,80.2414659875675,112
Tanay Mobile & EV Repairs,Chennai,13.048879317811277,80.27333427150272,165
Pahal Mobile & EV Repairs,Bengaluru,12.998414024599105,77.56884700880599,51
Darsh Mobile & EV Repairs,Kochi,9.913211606982724,76.22344073875973,110
Aarna Mobile & EV Repairs,Hyderabad,17.414942047868657,78.45968289741192,141
Ekavir Mobile & EV Repairs,Chennai,13.040879793775547,80.2577424825924,126
Samuel Mobile & EV Repairs,Bengaluru,12.94437674035387,77.6094662907496,178
Nicholas Mobile & EV Repairs,Hyderabad,17.426966811305046,78.5068909446064,162
Dhruv Mobile & EV Repairs,Chennai,13.061214458144281,80.23075980135951,114
Aishani Mobile & EV Repairs,Kochi,9.897801248645841,76.23236565188097,41
Chaman Mobile & EV Repairs,Hyderabad,17.43059008911989,78.49968954160441,104
Kamya Mobile & EV Repairs,Bengaluru,12.931210949102773,77.63315107951951,41
Chaitanya Mobile & EV Repairs,Bengaluru,13.00555276990961,77.6365025236763,159
Hemani Mobile & EV Repairs,Kochi,9.93873895327259,76.30768091495375,62
Pratyush Mobile & EV Repairs,Hyderabad,17.39361858329734,78.49543298485555,77
Ekaraj Mobile & EV Repairs,Chennai,13.089857356566794,80.25469929785912,71
Harita Mobile & EV Repairs,Hyderabad,17.34483607298029,78.46033279061571,122
Devansh Mobile & EV Repairs,Chennai,13.062566665197101,80.25308769691557,31
Kritika Mobile & EV Repairs,Bengaluru,12.925092206125584,77.58311093100863,31
Meera Mobile & EV Repairs,Chennai,13.08376095655945,80.27729475748727,46
Quincy Mobile & EV Repairs,Kochi,9.95501992102344,76.2690241426285,88
Panini Mobile & EV Repairs,Bengaluru,12.995257066594602,77.64126476384266,25
Anay Mobile & EV Repairs,Kochi,9.911814703499664,76.2962028321331,88
Vansha Mobile & EV Repairs,Chennai,13.070790496276244,80.22197342660763,112
Yashodhara Mobile & EV Repairs,Chennai,13.098788590940593,80.29457768442563,74
Ira Mobile & EV Repairs,Chennai,13.044013095662981,80.26768152463755,38
Varsha Mobile & EV Repairs,Hyderabad,17.387887196984707,78.47823083375695,56
Aayush Mobile & EV Repairs,Chennai,13.10903254526649,80.28499482849585,100
Lakshit Mobile & EV Repairs,Chennai,13.088061962196365,80.31488554298649,143
Gaurangi Mobile & EV Repairs,Hyderabad,17.385331036734357,78.48271539654365,105
Vasudha Mobile & EV Repairs,Kochi,9.951807538596473,76.22151921294612,55
Kashvi Mobile & EV Repairs,Kochi,9.90584377400331,76.24734203635455,184
Yug Mobile & EV Repairs,Bengaluru,12.956165050028213,77.63929093516977,111
Yashica Mobile & EV Repairs,Bengaluru,12.97573095583467,77.58333511873153,67
Saanvi Mobile & EV Repairs,Kochi,9.936925207481343,76.28254002684574,115
Yashoda Mobile & EV Repairs,Chennai,13.061175265880465,80.30545399341037,109
Vidhi Mobile & EV Repairs,Kochi,9.979442944976856,76.28287651922379,117
Isaac Mobile & EV Repairs,Bengaluru,12.9416067774268,77.55863531899905,183
Mahika Mobile & EV Repairs,Hyderabad,17.375881260673,78.46002068218739,102
Ansh Mobile & EV Repairs,Kochi,9.935945795594371,76.3102571820214,82
Simon Mobile & EV Repairs,Kochi,9.901563811617654,76.26919772208564,145
Yatan Mobile & EV Repairs,Chennai,13.098718465507963,80.23721688527812,107
Hemani Mobile & EV Repairs,Hyderabad,17.380041752962043,78.48692784755953,128
Ubika Mobile & EV Repairs,Hyderabad,17.434197029273975,78.48998081254341,100
Deepa Mobile & EV Repairs,Kochi,9.88191531583118,76.30901289906457,189
Hredhaan Mobile & EV Repairs,Kochi,9.94326748637375,76.23757734364033,77
Panini Mobile & EV Repairs,Kochi,9.918107574794416,76.31335440102622,133
Faqid Mobile & EV Repairs,Hyderabad,17.340582180170152,78.47053880723551,110
Hemal Mobile & EV Repairs,Hyderabad,17.36774240104272,78.52611627201333,36
Nilima Mobile & EV Repairs,Hyderabad,17.404535514296033,78.43675509866331,21
Wakeeta Mobile & EV Repairs,Hyderabad,17.338391360352944,78.43843584076139,97
Nandini Mobile & EV Repairs,Chennai,13.064432115642726,80.24665706414905,50
Udarsh Mobile & EV Repairs,Bengaluru,13.00574930128602,77.57313595154667,61
Zaitra Mobile & EV Repairs,Hyderabad,17.36797942480454,78.44875757355031,36
Gavin Mobile & EV Repairs,Kochi,9.904191218880468,76.31632830980412,127
Omaja Mobile & EV Repairs,Hyderabad,17.349636927986495,78.50192020421689,129
Ekapad Mobile & EV Repairs,Bengaluru,13.018029280683157,77.58681361692882,93
Arya Mobile & EV Repairs,Kochi,9.921159047297614,76.25878054095479,179
Chavvi Mobile & EV Repairs,Hyderabad,17.41091592895328,78.5313579811438,152
Mugdha Mobile & EV Repairs,Kochi,9.946801051722193,76.26008217092935,154
Mekhala Mobile & EV Repairs,Bengaluru,12.955515734978471,77.5916783579895,135
Urvashi Mobile & EV Repairs,Bengaluru,12.930744991486584,77.54878180736266,177
Sai Mobile & EV Repairs,Chennai,13.046545584613408,80.2504068892265,189
Gauri Mobile & EV Repairs,Chennai,13.034445944769315,80.2587757417579,107
Mohammed Mobile & EV Repairs,Hyderabad,17.339495823929163,78.43906993427049,75
Libni Mobile & EV Repairs,Hyderabad,17.40649768359194,78.48679499986443,137
Inaya Mobile & EV Repairs,Bengaluru,12.98586659247208,77.60966425992264,71
Alexander Mobile & EV Repairs,Hyderabad,17.360916775412033,78.505111258839,141
Anvi Mobile & EV Repairs,Hyderabad,17.340278458183043,78.4536278292038,92
Yatan Mobile & EV Repairs,Hyderabad,17.357675943304592,78.4627867249306,83
Wahab Mobile & EV Repairs,Kochi,9.937077951647577,76.24998787297007,38
Sudiksha Mobile & EV Repairs,Bengaluru,12.922460119683583,77.6195953790499,57
Kashvi Mobile & EV Repairs,Kochi,9.923545806205642,76.24643624172533,142
Reyansh Mobile & EV Repairs,Chennai,13.102862345725438,80.22160030774337,101
Inaya Mobile & EV Repairs,Hyderabad,17.35808431607884,78.53228442999952,102
Sanya Mobile & EV Repairs,Hyderabad,17.399656079716443,78.46003684176655,107
Aarnav Mobile & EV Repairs,Bengaluru,12.947583130121508,77.63047385343938,139
Chakradhar Mobile & EV Repairs,Kochi,9.933206040255344,76.2430183067578,75
Divya Mobile & EV Repairs,Hyderabad,17.349328091807127,78.51713052101206,172
Advik Mobile & EV Repairs,Kochi,9.889080156267955,76.2382288302441,198
Mohammed Mobile & EV Repairs,Bengaluru,12.981565497168283,77.54476849325394,76
Pooja Mobile & EV Repairs,Chennai,13.124502276114562,80.29326718919987,23
Rayaan Mobile & EV Repairs,Hyderabad,17.36616719038529,78.45343567262906,176
Chaitaly Mobile & EV Repairs,Hyderabad,17.403385582717075,78.46390734935646,128
Hiral Mobile & EV Repairs,Chennai,13.095315768303545,80.28532386308989,151
Christopher Mobile & EV Repairs,Chennai,13.084273357054334,80.23024235284447,75
Udant Mobile & EV Repairs,Chennai,13.095319623344833,80.27607759385523,165
Jairaj Mobile & EV Repairs,Chennai,13.131459788170678,80.26157844007196,28
Tanvi Mobile & EV Repairs,Hyderabad,17.409279397876695,78.45599521552258,121
Gabriel Mobile & EV Repairs,Kochi,9.981158183796357,76.22743168272339,71
Noah Mobile & EV Repairs,Bengaluru,12.996926521959994,77.63687726810177,191
Yash Mobile & EV Repairs,Bengaluru,13.004733074298532,77.60311886837978,162
Harshil Mobile & EV Repairs,Chennai,13.107569474138591,80.31096909130389,41
Megha Mobile & EV Repairs,Bengaluru,12.985333881421296,77.56444893254007,41
Reyansh Mobile & EV Repairs,Chennai,13.08587623364516,80.28491465098476,55
Adya Mobile & EV Repairs,Bengaluru,12.962875922293794,77.59245997892316,197
Falak Mobile & EV Repairs,Hyderabad,17.399140090035058,78.48944671267232,133
Robert Mobile & EV Repairs,Hyderabad,17.354916362894908,78.49099516994696,39
Kashish Mobile & EV Repairs,Kochi,9.946612406339705,76.26894430280626,58
Dhruv Mobile & EV Repairs,Bengaluru,13.011257799862046,77.59732518377334,55
Advika Mobile & EV Repairs,Bengaluru,12.999310193237825,77.6012233931209,121
Banjeet Mobile & EV Repairs,Bengaluru,12.984805832456106,77.59595071687234,167
Ijaya Mobile & EV Repairs,Bengaluru,13.016096458518687,77.56129366081896,99
Vinaya Mobile & EV Repairs,Bengaluru,13.010905220616133,77.61114639052099,28
Jackson Mobile & EV Repairs,Kochi,9.969878740060828,76.30304568697554,80
Timothy Mobile & EV Repairs,Chennai,13.118820255834612,80.30558428446457,33
Radhika Mobile & EV Repairs,Kochi,9.893198159448918,76.31079095357693,192
Yatin Mobile & EV Repairs,Hyderabad,17.33558396325703,78.51815520251597,115
Neha Mobile & EV Repairs,Hyderabad,17.349233824882198,78.46458964203507,165
Advay Mobile & EV Repairs,Chennai,13.059130354246477,80.30540468323474,123
Deepa Mobile & EV Repairs,Kochi,9.90556321943868,76.22562091384349,115
Chanchal Mobile & EV Repairs,Hyderabad,17.393677408990374,78.52827253091935,57
Champak Mobile & EV Repairs,Chennai,13.050246962837889,80.23610788042524,179
Ekapad Mobile & EV Repairs,Hyderabad,17.39251739803832,78.51352782223124,108
Bhavya Mobile & EV Repairs,Kochi,9.898721318385402,76.22347512982972,23
Udarsh Mobile & EV Repairs,Kochi,9.936679319520513,76.2498652380974,37
Fariq Mobile & EV Repairs,Kochi,9.939465688078597,76.27289281350781,98
Ranveer Mobile & EV Repairs,Hyderabad,17.403426515062204,78.50366908225556,46
Leena Mobile & EV Repairs,Chennai,13.130166270371856,80.29233877130454,58
Zayan Mobile & EV Repairs,Hyderabad,17.361195532277303,78.47440277734,140
Veda Mobile & EV Repairs,Hyderabad,17.363037178164184,78.5166106845886,81
Omaja Mobile & EV Repairs,Kochi,9.897581732096059,76.28284470539027,56
Sai Mobile & EV Repairs,Kochi,9.929693704736968,76.30186106061059,165
Harrison Mobile & EV Repairs,Chennai,13.053587790845764,80.22428385008241,123
Harinakshi Mobile & EV Repairs,Chennai,13.12336412714483,80.26815991832567,190
Brinda Mobile & EV Repairs,Kochi,9.91886849689139,76.23467123769814,35
Aayush Mobile & EV Repairs,Chennai,13.129319300449314,80.22287901028062,45
Sanaya Mobile & EV Repairs,Kochi,9.939425516711443,76.31199452082708,103
Eta Mobile & EV Repairs,Bengaluru,12.991048009267347,77.56396283687033,124
Anya Mobile & EV Repairs,Hyderabad,17.385122499074757,78.47363359404547,166
Shravya Mobile & EV Repairs,Kochi,9.902870573137323,76.2498913348258,154
Gautam Mobile & EV Repairs,Bengaluru,12.940932059227167,77.58664769375389,179
Aarini Mobile & EV Repairs,Bengaluru,12.922455156175383,77.5775037404613,115
Nitara Mobile & EV Repairs,Kochi,9.979830211905268,76.31442695231163,188
Udyati Mobile & EV Repairs,Kochi,9.913180716224192,76.26116157486739,145
Balendra Mobile & EV Repairs,Chennai,13.046372883632818,80.26013503668524,147
Vedhika Mobile & EV Repairs,Bengaluru,12.941236926207544,77.58076005643635,31
Rudra Mobile & EV Repairs,Kochi,9.93758979054933,76.29247690549934,37
Jeevika Mobile & EV Repairs,Chennai,13.12263799541294,80.24462930496547,131
Aayush Mobile & EV Repairs,Kochi,9.93053274828702,76.25953445010714,124
Kalpit Mobile & EV Repairs,Chennai,13.106268827322214,80.30000890466776,133
Advika Mobile & EV Repairs,Kochi,9.936464461017906,76.21903537249855,35
Forum Mobile & EV Repairs,Chennai,13.077515961917213,80.28630219775583,69
Farhan Mobile & EV Repairs,Hyderabad,17.399510023009686,78.46623777765532,106
Pooja Mobile & EV Repairs,Bengaluru,12.965022227896284,77.63998684223176,137
Aryan Mobile & EV Repairs,Hyderabad,17.40980796334271,78.50698019575638,159
Zilmil Mobile & EV Repairs,Bengaluru,12.96119308710247,77.55328990537004,74
Anvi Mobile & EV Repairs,Bengaluru,12.938961566003904,77.54930196286954,194
Omisha Mobile & EV Repairs,Kochi,9.924512191419259,76.2692229218147,35
Ikshita Mobile & EV Repairs,Hyderabad,17.367865825678184,78.49384434126391,189
Timothy Mobile & EV Repairs,Hyderabad,17.39158298294988,78.50137752031914,103
Elijah Mobile & EV Repairs,Chennai,13.038347444551203,80.29302638676225,112
Anusha Mobile & EV Repairs,Chennai,13.05626155047951,80.3005405861809,58
Ranbir Mobile & EV Repairs,Chennai,13.036353757506268,80.2297481823963,173
Manbir Mobile & EV Repairs,Kochi,9.973634514931245,76.29521966895896,182
Kavya Mobile & EV Repairs,Bengaluru,13.01458147156238,77.56778655799324,76
Robert Mobile & EV Repairs,Bengaluru,12.972381945678096,77.57430375784784,145
Hemani Mobile & EV Repairs,Chennai,13.10384154167319,80.2964498642888,161
Rayaan Mobile & EV Repairs,Chennai,13.075778415975389,80.2748436920982,148
Vrishti Mobile & EV Repairs,Bengaluru,12.99067644894592,77.5498403469194,126
Sara Mobile & EV Repairs,Kochi,9.958034087874426,76.30025726630073,114
Qushi Mobile & EV Repairs,Chennai,13.04236295408041,80.2768474578207,101
Ira Mobile & EV Repairs,Bengaluru,12.99110988027038,77.57891836277982,69
Vasatika Mobile & EV Repairs,Chennai,13.071337943784043,80.22976970672364,57
Xiti Mobile & EV Repairs,Hyderabad,17.345944113610592,78.52995066220015,96
Rajata Mobile & EV Repairs,Chennai,13.083362798580021,80.29303783319382,172
Wridesh Mobile & EV Repairs,Hyderabad,17.337624782168078,78.44174040811016,173
Janya Mobile & EV Repairs,Kochi,9.892228252544076,76.21795033169975,30
Jagdish Mobile & EV Repairs,Chennai,13.084239523370888,80.2967767239578,156
Reva Mobile & EV Repairs,Kochi,9.888230204369096,76.26543659864836,153
Jhalak Mobile & EV Repairs,Chennai,13.03784234788224,80.27412746042997,104
Tristan Mobile & EV Repairs,Kochi,9.973680077742689,76.23593833129348,52
Rayaan Mobile & EV Repairs,Chennai,13.037287505739322,80.30483616584179,150
Charan Mobile & EV Repairs,Bengaluru,13.004695186613317,77.58673739154202,35
Vaishnavi Mobile & EV Repairs,Bengaluru,13.021000973862304,77.5795697947107,48
Kevin Mobile & EV Repairs,Chennai,13.091460873319173,80.30279747247263,108
Michael Mobile & EV Repairs,Bengaluru,12.960279293462047,77.59043866535497,148
Isaiah Mobile & EV Repairs,Chennai,13.04258015968801,80.22085183424797,59
Meera Mobile & EV Repairs,Chennai,13.12872208350771,80.2857689832042,48
Aarav Mobile & EV Repairs,Bengaluru,12.948749942401978,77.63585794903803,185
Samar Mobile & EV Repairs,Hyderabad,17.34333421961349,78.49327730014734,38
Zaid Mobile & EV Repairs,Bengaluru,12.9672705894541,77.56282185962112,22
Rajata Mobile & EV Repairs,Kochi,9.930518646601106,76.28691421482903,198
Vivaan Mobile & EV Repairs,Kochi,9.889629851759244,76.30603510288375,60
Damini Mobile & EV Repairs,Bengaluru,12.936298508818185,77.62389790450558,177
Vasudha Mobile & EV Repairs,Chennai,13.03645562025939,80.26680492955822,125
Nikita Mobile & EV Repairs,Chennai,13.117720436938507,80.23167683179418,47
Manthan Mobile & EV Repairs,Chennai,13.110914748455775,80.25827149701212,101
Harinakshi Mobile & EV Repairs,Kochi,9.97035021486173,76.27650118094543,102
Indrajit Mobile & EV Repairs,Chennai,13.083949886071913,80.23987984774556,95
Shravya Mobile & EV Repairs,Chennai,13.11112847602069,80.28294816634447,91
Tarak Mobile & EV Repairs,Hyderabad,17.367015059583654,78.51381021369146,33
Bhavya Mobile & EV Repairs,Chennai,13.059023850998948,80.24236268641955,70
Pallavi Mobile & EV Repairs,Bengaluru,13.012283485231107,77.62231954377498,190
Anirudh Mobile & EV Repairs,Bengaluru,13.019350232452831,77.61255616012083,51
Yochana Mobile & EV Repairs,Chennai,13.09172900554832,80.30042137020956,172
Chavvi Mobile & EV Repairs,Kochi,9.973875390838703,76.22722504938899,105
Zaid Mobile & EV Repairs,Kochi,9.886154381866115,76.21849056260469,63
Dalbir Mobile & EV Repairs,Hyderabad,17.398609701398545,78.52213134792126,147
Panini Mobile & EV Repairs,Bengaluru,12.956989157797674,77.56195880488995,80
Gabriel Mobile & EV Repairs,Hyderabad,17.366039728248367,78.46589063829356,101
Lohit Mobile & EV Repairs,Chennai,13.105462735446507,80.26206041382522,154
Upadhriti Mobile & EV Repairs,Kochi,9.93759889701336,76.27509949487067,157
Chatura Mobile & EV Repairs,Bengaluru,12.97518540806997,77.61511144949904,20
Raksha Mobile & EV Repairs,Chennai,13.051701943740845,80.23328270329597,41
Isha Mobile & EV Repairs,Hyderabad,17.37796559007129,78.52705049165785,60
Noah Mobile & EV Repairs,Hyderabad,17.38564220668987,78.44515540364452,115
Bakhshi Mobile & EV Repairs,Bengaluru,12.985282226792076,77.55822921490403,135
Chatura Mobile & EV Repairs,Hyderabad,17.39755128659876,78.46757755743475,53
Andrew Mobile & EV Repairs,Kochi,9.908138076589834,76.27149660835288,112
Anthony Mobile & EV Repairs,Kochi,9.922861095304494,76.2487024202777,50
Daksh Mobile & EV Repairs,Bengaluru,13.010471153422206,77.56073779729607,88
Chandran Mobile & EV Repairs,Chennai,13.09701585435501,80.24370193599948,154
Ekavir Mobile & EV Repairs,Chennai,13.10601072503984,80.28812166378641,192
Sanya Mobile & EV Repairs,Bengaluru,12.9919244296823,77.62753464291964,49
Varsha Mobile & EV Repairs,Chennai,13.057619719236511,80.29789132635143,61
Bhavna Mobile & EV Repairs,Bengaluru,12.981649666281246,77.56075998611239,32
Kai Mobile & EV Repairs,Hyderabad,17.422116507595735,78.48811914260402,143
Oscar Mobile & EV Repairs,Kochi,9.92678101658903,76.2787696609216,154
Luke Mobile & EV Repairs,Kochi,9.89139626300217,76.31509715877499,173
Nisha Mobile & EV Repairs,Bengaluru,12.95121120439242,77.59717589388512,86
Samesh Mobile & EV Repairs,Hyderabad,17.41929992653932,78.47681410821562,22
Falan Mobile & EV Repairs,Hyderabad,17.390479024259637,78.45469848829269,107
Saanvi Mobile & EV Repairs,Bengaluru,13.012461998549897,77.62562948374112,192
Gavin Mobile & EV Repairs,Bengaluru,13.003481916327047,77.56842916159599,85
Pratyush Mobile & EV Repairs,Kochi,9.882703735489951,76.24172298737406,128
Nathan Mobile & EV Repairs,Chennai,13.067601818243542,80.2815102298814,185
Anirudh Mobile & EV Repairs,Hyderabad,17.338402951601463,78.4990945208926,26
Ekta Mobile & EV Repairs,Kochi,9.936174394863464,76.23600436737472,100
Zashil Mobile & EV Repairs,Bengaluru,12.996244034020036,77.60380364648778,155
Kevin Mobile & EV Repairs,Chennai,13.097231592879561,80.25670733492912,184
Bakhshi Mobile & EV Repairs,Chennai,13.072770569947956,80.23792802864645,178
Sanya Mobile & EV Repairs,Hyderabad,17.43298024818046,78.53112686720529,175
Charles Mobile & EV Repairs,Bengaluru,12.93994830363076,77.60790714898936,33
Nidhi Mobile & EV Repairs,Bengaluru,12.997549706816095,77.61174313440233,128
Max Mobile & EV Repairs,Kochi,9.942809823028394,76.27223358745508,132
Harshil Mobile & EV Repairs,Chennai,13.081942941486519,80.2224197144012,76
Vedhika Mobile & EV Repairs,Kochi,9.945503780803598,76.23477051613496,162
Wyatt Mobile & EV Repairs,Chennai,13.037448878628847,80.24876384848605,31
Abhiram Mobile & EV Repairs,Chennai,13.121898470179712,80.2873845893205,197
Kabir Mobile & EV Repairs,Bengaluru,12.954231834712003,77.5552200084615,123
Nitesh Mobile & EV Repairs,Kochi,9.904321144051709,76.26443052470229,163
Eesha Mobile & EV Repairs,Hyderabad,17.41313323510075,78.5327364169623,156
Adweta Mobile & EV Repairs,Kochi,9.928115928763022,76.25381831662021,114
Amol Mobile & EV Repairs,Bengaluru,12.995616359759575,77.64129968397043,21
Urishilla Mobile & EV Repairs,Chennai,13.034131377697358,80.31455703337079,133
Unni Mobile & EV Repairs,Kochi,9.957936148577344,76.22038430159543,20
Charvi Mobile & EV Repairs,Kochi,9.9218485590076,76.24090015149743,149
Aachal Mobile & EV Repairs,Chennai,13.107587197547247,80.28312029529543,187
Garima Mobile & EV Repairs,Kochi,9.883387652205407,76.26649767848889,77
Anusha Mobile & EV Repairs,Chennai,13.072588289044726,80.2219560950138,178
Riya Mobile & EV Repairs,Kochi,9.953428380583471,76.23383054148839,175
Amol Mobile & EV Repairs,Hyderabad,17.396462499546114,78.46229607514643,29
Girish Mobile & EV Repairs,Chennai,13.100648053122493,80.31670275713408,172
Chandran Mobile & EV Repairs,Hyderabad,17.40063537421794,78.44172699012621,160
Charvi Mobile & EV Repairs,Kochi,9.925402745496847,76.31546963192665,109
Lopa Mobile & EV Repairs,Bengaluru,12.95282104586477,77.58887672446905,153
Krishna Mobile & EV Repairs,Bengaluru,12.96760884495513,77.56789464930613,158
Azad Mobile & EV Repairs,Bengaluru,12.989130699041347,77.5616551865973,56
Gagan Mobile & EV Repairs,Bengaluru,12.930321864959167,77.54557439648337,135
Jatin Mobile & EV Repairs,Kochi,9.897634677467659,76.3089339339936,104
Abeer Mobile & EV Repairs,Chennai,13.097210439811619,80.23542205271171,139
Wahab Mobile & EV Repairs,Bengaluru,12.999309152043404,77.56658533632175,56
Dayamai Mobile & EV Repairs,Chennai,13.098346003983796,80.29308816272926,64
Raksha Mobile & EV Repairs,Hyderabad,17.357273486207628,78.51955284986143,101
Upadhriti Mobile & EV Repairs,Chennai,13.044089504794286,80.2440590692215,168
Neelima Mobile & EV Repairs,Hyderabad,17.391506179959876,78.48034003674502,154
Jagvi Mobile & EV Repairs,Kochi,9.966928983214169,76.23034630915492,181
Garima Mobile & EV Repairs,Chennai,13.065994969700723,80.26675748487227,79
Vaishnavi Mobile & EV Repairs,Hyderabad,17.42868407369227,78.53084853807353,140
Yamini Mobile & EV Repairs,Hyderabad,17.386936764272605,78.52343553274437,118
Omkaar Mobile & EV Repairs,Bengaluru,12.937835011410641,77.54463815292728,128
Hredhaan Mobile & EV Repairs,Bengaluru,12.938514660648543,77.56306001035911,122
Wishi Mobile & EV Repairs,Chennai,13.069137999557157,80.23827250961767,168
Chaitanya Mobile & EV Repairs,Hyderabad,17.4217534830108,78.48731399097127,170
Ekbal Mobile & EV Repairs,Kochi,9.97083492403991,76.28365246787074,124
Eshana Mobile & EV Repairs,Hyderabad,17.349991835160353,78.49633246132092,123
Dalbir Mobile & EV Repairs,Chennai,13.08713230669841,80.26078854911135,110
Yahvi Mobile & EV Repairs,Hyderabad,17.41060843956511,78.46017854442114,111
Anmol Mobile & EV Repairs,Chennai,13.047619422946145,80.28669364772202,187
Dev Mobile & EV Repairs,Bengaluru,13.004567277435214,77.60715309471468,127
Ethan Mobile & EV Repairs,Bengaluru,12.958656070583856,77.63683180201254,134
Saanvi Mobile & EV Repairs,Bengaluru,12.96203606960355,77.57244961588493,33
Kavya Mobile & EV Repairs,Chennai,13.104983146289422,80.24589983208017,200
Varsha Mobile & EV Repairs,Bengaluru,12.940982097813151,77.57608838214992,115
Anjali Mobile & EV Repairs,Hyderabad,17.403590599019317,78.44622968183351,136
Gopal Mobile & EV Repairs,Kochi,9.915623889775201,76.2784395708325,122
Ekta Mobile & EV Repairs,Hyderabad,17.413800936068633,78.48565694896003,113
Zaitra Mobile & EV Repairs,Kochi,9.943128847361633,76.2745692622378,157
Praneel Mobile & EV Repairs,Chennai,13.04863077867326,80.31972448724926,92
Jeremiah Mobile & EV Repairs,Chennai,13.070329665938102,80.29582903313396,71
Urvi Mobile & EV Repairs,Kochi,9.926599794163414,76.25966084221163,69
Warda Mobile & EV Repairs,Hyderabad,17.434005837222298,78.50681235838628,198
Manan Mobile & EV Repairs,Hyderabad,17.408668257619937,78.46508360759191,175
Matthew Mobile & EV Repairs,Kochi,9.922415923074782,76.29805166274664,124
Harini Mobile & EV Repairs,Bengaluru,12.947804410202295,77.56733843517745,30
Samaksh Mobile & EV Repairs,Kochi,9.93309108680512,76.2793277002244,177
Ronith Mobile & EV Repairs,Hyderabad,17.38621562966464,78.51447953068222,155
Charan Mobile & EV Repairs,Kochi,9.952977421604027,76.25699391601637,73
Vasana Mobile & EV Repairs,Chennai,13.115792603328762,80.22595467808566,149
Warjas Mobile & EV Repairs,Bengaluru,12.922120679791835,77.63510205026269,49
Advik Mobile & EV Repairs,Bengaluru,12.969682305746305,77.5825678488955,200
Faris Mobile & EV Repairs,Chennai,13.110199426380625,80.25324397897468,132
Tripti Mobile & EV Repairs,Hyderabad,17.362038128298167,78.4704885057745,111
Geetika Mobile & EV Repairs,Chennai,13.12706257621688,80.23305409459498,20
Max Mobile & EV Repairs,Chennai,13.040011279195348,80.23894178501473,57
Xiti Mobile & EV Repairs,Bengaluru,12.985934308571512,77.61242224597821,116
Yug Mobile & EV Repairs,Kochi,9.933050306550065,76.28360800015743,23
Ekansh Mobile & EV Repairs,Chennai,13.11958325607269,80.22671949868285,200
Vincent Mobile & EV Repairs,Kochi,9.903673950681657,76.27375042580405,98
Bhavini Mobile & EV Repairs,Bengaluru,12.936308210589283,77.63303142296041,145
Fitan Mobile & EV Repairs,Chennai,13.056608286240483,80.23756541049481,42
Chandresh Mobile & EV Repairs,Kochi,9.925387083811872,76.31714300511848,36
Barkha Mobile & EV Repairs,Bengaluru,12.949736293435167,77.5849404213819,189
Anya Mobile & EV Repairs,Kochi,9.972281047207117,76.23935422968279,84
Banjeet Mobile & EV Repairs,Kochi,9.893393412510532,76.28963226336367,34
Janaki Mobile & EV Repairs,Kochi,9.925666601343098,76.2999933190244,153
Omaja Mobile & EV Repairs,Kochi,9.962792617961492,76.24935790965256,54
Jason Mobile & EV Repairs,Bengaluru,13.011557442359381,77.57811395979246,196
Bakhshi Mobile & EV Repairs,Bengaluru,12.95619470343866,77.61093411498796,176
Dhruv Mobile & EV Repairs,Bengaluru,12.981040743713725,77.56068708161797,25
Kalpit Mobile & EV Repairs,Chennai,13.128155969632822,80.24861479381164,157
Brijesh Mobile & EV Repairs,Bengaluru,13.011135380871256,77.5857619656355,190
Upkaar Mobile & EV Repairs,Hyderabad,17.336913821141312,78.4448273487134,74
Januja Mobile & EV Repairs,Hyderabad,17.391924437372857,78.50183436157974,64
Girish Mobile & EV Repairs,Bengaluru,12.976463252034748,77.61057534435221,191
Eesha Mobile & EV Repairs,Kochi,9.900501792668935,76.31283425309955,76
Saksham Mobile & EV Repairs,Bengaluru,12.999122930062002,77.63225337827433,163
Sanaya Mobile & EV Repairs,Hyderabad,17.410983975918498,78.4657575156137,155
Prisha Mobile & EV Repairs,Chennai,13.114535132726761,80.30360887360152,29
Farhan Mobile & EV Repairs,Chennai,13.0540219910855,80.25985516510637,64
Vasudha Mobile & EV Repairs,Chennai,13.034021005296609,80.28180864902936,108
Upadhriti Mobile & EV Repairs,Hyderabad,17.366912131172807,78.44507003514896,89
Harita Mobile & EV Repairs,Chennai,13.1290585194803,80.2277460072553,61
Brinda Mobile & EV Repairs,Chennai,13.095257114827454,80.24916650185314,166
Gopal Mobile & EV Repairs,Bengaluru,12.957462248919954,77.55155259911571,157
Zashil Mobile & EV Repairs,Kochi,9.978468346610539,76.26079208526681,135
Banjeet Mobile & EV Repairs,Chennai,13.065229656344501,80.24987839080649,45
Utkarsh Mobile & EV Repairs,Kochi,9.887570613251674,76.28610057109353,44
Zayan Mobile & EV Repairs,Kochi,9.911123197751385,76.26452543720454,123
Jhalak Mobile & EV Repairs,Chennai,13.111211393212995,80.29798561584153,80
Manya Mobile & EV Repairs,Hyderabad,17.40593554207336,78.44226996492678,140
Anmol Mobile & EV Repairs,Bengaluru,12.952622156544015,77.61441331839293,117
Yashawini Mobile & EV Repairs,Hyderabad,17.337294776966772,78.49893736285541,167
Ethan Mobile & EV Repairs,Hyderabad,17.374787406811976,78.46953556724328,106
William Mobile & EV Repairs,Hyderabad,17.434238161131365,78.45458848977303,71
Nidhi Mobile & EV Repairs,Chennai,13.076248269710371,80.23047495131121,140
Bishakha Mobile & EV Repairs,Kochi,9.925186912323458,76.31646389570207,82
Kabir Mobile & EV Repairs,Bengaluru,12.968908523750795,77.60585433827218,93
Eesha Mobile & EV Repairs,Kochi,9.903037397881615,76.30063642916537,170
Priya Mobile & EV Repairs,Hyderabad,17.393926036687056,78.52129143877632,131
Mitesh Mobile & EV Repairs,Hyderabad,17.35002335131151,78.46850711036127,45
Ryan Mobile & EV Repairs,Bengaluru,12.948001786160603,77.56127876418853,105
Chaaya Mobile & EV Repairs,Hyderabad,17.362060132658325,78.53268794488298,50
Atharv Mobile & EV Repairs,Bengaluru,12.955734107470871,77.62141073704535,105
Vedika Mobile & EV Repairs,Kochi,9.901715755157142,76.26749665723887,87
Lila Mobile & EV Repairs,Kochi,9.917242981466014,76.2465316621812,177
Chatura Mobile & EV Repairs,Kochi,9.881511899588045,76.22095557680674,21
Falguni Mobile & EV Repairs,Hyderabad,17.40285058599732,78.47096617951208,65
Anmol Mobile & EV Repairs,Chennai,13.089223124992724,80.25323609154105,100
Zaid Mobile & EV Repairs,Bengaluru,12.973891179695151,77.54603220954465,61
Oeshi Mobile & EV Repairs,Hyderabad,17.434382314081596,78.51480779014602,135
Bachittar Mobile & EV Repairs,Kochi,9.938093869274658,76.23952671967487,30
Nathan Mobile & EV Repairs,Kochi,9.966672259904016,76.22080639641446,26
Vanya Mobile & EV Repairs,Hyderabad,17.39229981994294,78.46361032017957,116
Daksh Mobile & EV Repairs,Chennai,13.106697314906786,80.27632023088199,189
Vrishti Mobile & EV Repairs,Chennai,13.07957743408853,80.2894523712014,180
Ekavir Mobile & EV Repairs,Kochi,9.956175123433102,76.25993868663497,135
Falak Mobile & EV Repairs,Bengaluru,12.936184433886806,77.55919464340457,192
Samar Mobile & EV Repairs,Bengaluru,12.983421651517952,77.61231165507537,165
Balhaar Mobile & EV Repairs,Chennai,13.098495548497073,80.24103519146419,183
Garima Mobile & EV Repairs,Bengaluru,13.008166875092607,77.59030594435451,163
Eshana Mobile & EV Repairs,Chennai,13.122583491215133,80.2537686927804,151
Bhavya Mobile & EV Repairs,Bengaluru,13.018335960270962,77.59922549284006,184
Quincy Mobile & EV Repairs,Bengaluru,12.999855649345282,77.54766162443201,169
Anvi Mobile & EV Repairs,Hyderabad,17.352659547492674,78.50579158568392,162
Geetika Mobile & EV Repairs,Chennai,13.049348466587382,80.26277679839842,97
Lopa Mobile & EV Repairs,Kochi,9.917450392937964,76.23070037992109,158
Pranit Mobile & EV Repairs,Chennai,13.098670578951443,80.2301588724644,81
Warjas Mobile & EV Repairs,Chennai,13.070203948131043,80.24991652599206,176
Vinaya Mobile & EV Repairs,Kochi,9.940588987214515,76.25785797771388,39
Balendra Mobile & EV Repairs,Kochi,9.938559434086304,76.25302170742084,117
Liam Mobile & EV Repairs,Kochi,9.947067416248816,76.3163254915882,174
Kavya Mobile & EV Repairs,Chennai,13.057754876650469,80.26400825246222,40
Aarush Mobile & EV Repairs,Kochi,9.89644547837672,76.2477063347226,38
Advaith Mobile & EV Repairs,Hyderabad,17.417541474733124,78.53524963716632,153
Unnati Mobile & EV Repairs,Hyderabad,17.358712999498497,78.52481815681182,151
Ekta Mobile & EV Repairs,Chennai,13.107232225077928,80.23046346216212,184
Gunbir Mobile & EV Repairs,Bengaluru,13.005934054551805,77.63148983714206,60
Gavin Mobile & EV Repairs,Chennai,13.107172933063358,80.22288976148124,77
Zaitra Mobile & EV Repairs,Bengaluru,12.935686438695434,77.59231791791153,126
Atharv Mobile & EV Repairs,Chennai,13.066302572816115,80.27987519676692,181
Mitesh Mobile & EV Repairs,Kochi,9.911549648787883,76.25028419867212,198
Rachita Mobile & EV Repairs,Hyderabad,17.337040908965847,78.50821279006018,113
Ishaan Mobile & EV Repairs,Bengaluru,12.965262267215106,77.60372053229561,24
Wyatt Mobile & EV Repairs,Chennai,13.075515374595584,80.27496848083597,180
Umang Mobile & EV Repairs,Bengaluru,12.957876735803962,77.58350745979547,187
Charan Mobile & EV Repairs,Bengaluru,12.980879843015797,77.55886104579822,184
Bhavika Mobile & EV Repairs,Hyderabad,17.397624903821523,78.53507617585278,47
Zaitra Mobile & EV Repairs,Hyderabad,17.355082679635743,78.48868282995959,66
Eiravati Mobile & EV Repairs,Kochi,9.891360761766798,76.27550368200413,146
Sneha Mobile & EV Repairs,Kochi,9.929463464067979,76.29312869358745,88
Arjun Mobile & EV Repairs,Chennai,13.094287424673393,80.25028802603049,107
Kamya Mobile & EV Repairs,Hyderabad,17.377230769950625,78.45016113012998,172
Vedant Mobile & EV Repairs,Bengaluru,13.0024228236232,77.61432160534645,173
Janya Mobile & EV Repairs,Kochi,9.94174076367435,76.25287461697123,136
Jalsa Mobile & EV Repairs,Hyderabad,17.338922953408268,78.47458136160284,197
Harinakshi Mobile & EV Repairs,Hyderabad,17.414996032611462,78.43980146977947,83
Karan Mobile & EV Repairs,Chennai,13.112429860498484,80.28543068351601,80
Manthan Mobile & EV Repairs,Chennai,13.061540356980457,80.266576941929,150
Ayaan Mobile & EV Repairs,Kochi,9.889573878931973,76.24154238099831,94
Amaira Mobile & EV Repairs,Chennai,13.13159357875892,80.26085662547612,190
Bimala Mobile & EV Repairs,Bengaluru,13.003949066943543,77.56797581767094,72
Darpan Mobile & EV Repairs,Hyderabad,17.347702454285596,78.51668296244141,136
Anay Mobile & EV Repairs,Hyderabad,17.399823950167907,78.47530309237678,74
Wyatt Mobile & EV Repairs,Chennai,13.057164018858243,80.29219053901167,71
Prisha Mobile & EV Repairs,Bengaluru,12.975052377711718,77.5756972139152,95
Lila Mobile & EV Repairs,Chennai,13.09827984160023,80.24285755047686,144
Hritik Mobile & EV Repairs,Bengaluru,12.995224970271254,77.60468762688035,71
Falak Mobile & EV Repairs,Chennai,13.041440190720222,80.30821289436847,151
Charvi Mobile & EV Repairs,Kochi,9.89773587137191,76.25697152099517,133
Wriddhish Mobile & EV Repairs,Chennai,13.072968542540895,80.31842025649225,155
Mitali Mobile & EV Repairs,Hyderabad,17.414518115270884,78.46987480385516,187
Januja Mobile & EV Repairs,Hyderabad,17.39221781846243,78.5303235472678,193
Zayan Mobile & EV Repairs,Kochi,9.886813085999487,76.2728388210243,52
Riya Mobile & EV Repairs,Hyderabad,17.40592379603941,78.47037718911946,47
Ijaya Mobile & EV Repairs,Bengaluru,12.928623227694649,77.64212896237004,138
Watika Mobile & EV Repairs,Hyderabad,17.375476286873116,78.44701435089486,188
Shravya Mobile & EV Repairs,Hyderabad,17.34914027040219,78.43934796338795,140
Garima Mobile & EV Repairs,Hyderabad,17.410375253746924,78.49275956399015,119
Sai Mobile & EV Repairs,Bengaluru,12.923655394372119,77.5464420402636,45
Vidhi Mobile & EV Repairs,Hyderabad,17.428610053181075,78.48440683964114,107
Damini Mobile & EV Repairs,Chennai,13.081945358601885,80.31505966183418,44
Charles Mobile & EV Repairs,Kochi,9.967037064901614,76.28757108904371,45
Meghana Mobile & EV Repairs,Chennai,13.081461867361424,80.26775627287198,58
Oliver Mobile & EV Repairs,Kochi,9.946968404978561,76.26390645950329,27
Damini Mobile & EV Repairs,Kochi,9.9603342372904,76.26974800710333,32
Laksh Mobile & EV Repairs,Chennai,13.107302732748751,80.2838776274617,118
Nilima Mobile & EV Repairs,Chennai,13.102626989373276,80.2480545017433,25
Chameli Mobile & EV Repairs,Bengaluru,13.001870702557305,77.63596355254649,118
Samaksh Mobile & EV Repairs,Hyderabad,17.387267599439983,78.52614238668444,103
Yashvi Mobile & EV Repairs,Chennai,13.106114838446134,80.25190184142741,170
Bhavini Mobile & EV Repairs,Bengaluru,12.970803766453173,77.63448915873674,125
Parth Mobile & EV Repairs,Bengaluru,12.97185259836612,77.57372307731899,188
Bhavika Mobile & EV Repairs,Hyderabad,17.431890889572184,78.53654495103831,158
Gaurika Mobile & EV Repairs,Hyderabad,17.387117332453446,78.47436652124652,51
Simon Mobile & EV Repairs,Chennai,13.110929760517951,80.24507262373085,107
Januja Mobile & EV Repairs,Hyderabad,17.34876301016125,78.44378977007362,172
Balvan Mobile & EV Repairs,Hyderabad,17.36083215869958,78.51638878464479,184
Amara Mobile & EV Repairs,Bengaluru,12.975666817788879,77.55745715692782,57
Aarush Mobile & EV Repairs,Hyderabad,17.409656785986208,78.4634623363308,147
Onveer Mobile & EV Repairs,Bengaluru,13.005154971990901,77.61805954412942,45
Jeet Mobile & EV Repairs,Kochi,9.91500649091047,76.26657504271998,179
Ojasvi Mobile & EV Repairs,Bengaluru,12.976913824254574,77.55224117123548,48
Luke Mobile & EV Repairs,Hyderabad,17.38446807392239,78.53222097063022,67
Zashil Mobile & EV Repairs,Kochi,9.960692481076363,76.27996323087444,160
Chameli Mobile & EV Repairs,Kochi,9.960814347982723,76.30975432119226,131
Hemal Mobile & EV Repairs,Chennai,13.069255909809526,80.28597301736174,28
Nidhi Mobile & EV Repairs,Bengaluru,12.982296484625662,77.6075523467839,27
Widisha Mobile & EV Repairs,Chennai,13.103969711058168,80.24363783038956,150
Nimrat Mobile & EV Repairs,Bengaluru,12.967426777436113,77.64258758283037,186
Chandani Mobile & EV Repairs,Kochi,9.90567883770375,76.29365247508161,62
Yatan Mobile & EV Repairs,Hyderabad,17.359710867260326,78.4973551587369,79
Ekantika Mobile & EV Repairs,Bengaluru,13.011231880608456,77.62877494195887,75
Hemang Mobile & EV Repairs,Chennai,13.104437731878733,80.29653416047194,79
Laksh Mobile & EV Repairs,Chennai,13.121314664256811,80.29188326588152,59
Lajita Mobile & EV Repairs,Bengaluru,12.98092695977228,77.58376218146667,39
Panini Mobile & EV Repairs,Bengaluru,12.976560385974777,77.61014786121659,41
Yamini Mobile & EV Repairs,Chennai,13.05294964409606,80.30933986814964,140
Jatin Mobile & EV Repairs,Bengaluru,12.999488770754539,77.57500340077297,75
Mitali Mobile & EV Repairs,Chennai,13.106870565670143,80.26785422567464,38
Yagnesh Mobile & EV Repairs,Kochi,9.908924164562915,76.30754566650192,168
Suhani Mobile & EV Repairs,Hyderabad,17.433464047766016,78.46721824975099,103
Hemang Mobile & EV Repairs,Chennai,13.066792232511219,80.23583119421885,69
Yachana Mobile & EV Repairs,Bengaluru,12.957615429900516,77.62927120807734,78
Chatresh Mobile & EV Repairs,Hyderabad,17.3920214189546,78.5167421425295,75
Anya Mobile & EV Repairs,Bengaluru,12.980346078616297,77.60554548753647,158
David Mobile & EV Repairs,Hyderabad,17.383812795457324,78.4597966026486,141
Harinakshi Mobile & EV Repairs,Bengaluru,13.005873071082533,77.57978729952622,90
Girish Mobile & EV Repairs,Bengaluru,12.963307336967063,77.5952185583316,137
Samar Mobile & EV Repairs,Kochi,9.919274157881558,76.22216247638616,156
Upadhriti Mobile & EV Repairs,Hyderabad,17.35846269573133,78.48145419277087,158
Ikshita Mobile & EV Repairs,Bengaluru,12.98468490760377,77.54517757030013,153
Waida Mobile & EV Repairs,Kochi,9.977237445867177,76.30909504971848,71
Reva Mobile & EV Repairs,Chennai,13.077185388211863,80.27517059617689,141
David Mobile & EV Repairs,Hyderabad,17.33784672442325,78.50799932844542,197
Chatura Mobile & EV Repairs,Hyderabad,17.3906897194099,78.46743810583958,49
Samuel Mobile & EV Repairs,Kochi,9.93715614855394,76.30679094987744,126
Anamika Mobile & EV Repairs,Bengaluru,13.004823146205874,77.64404933685468,186
Oliver Mobile & EV Repairs,Bengaluru,13.00141136296622,77.57971014764014,61
Hema Mobile & EV Repairs,Chennai,13.080710782760086,80.23534739081829,143
Omisha Mobile & EV Repairs,Hyderabad,17.348173932063567,78.4738478029855,118
Xalak Mobile & EV Repairs,Kochi,9.91814809895688,76.21906984970605,178
Hema Mobile & EV Repairs,Bengaluru,12.921685935000351,77.6293747374556,67
Eta Mobile & EV Repairs,Kochi,9.912980773915724,76.23326784581062,70
Girik Mobile & EV Repairs,Bengaluru,12.938012167898806,77.57877490073756,193
Vrishti Mobile & EV Repairs,Bengaluru,12.928039262147239,77.57519881799931,136
Nandini Mobile & EV Repairs,Hyderabad,17.34091111838082,78.52696669331202,150
Guneet Mobile & EV Repairs,Bengaluru,12.951195465347073,77.60609852443686,187
Zarna Mobile & EV Repairs,Chennai,13.126393055684582,80.28161401523437,192
Anita Mobile & EV Repairs,Chennai,13.055048956543905,80.2718082451903,85
Gaurangi Mobile & EV Repairs,Hyderabad,17.37535279081502,78.46883064026174,150
Lajita Mobile & EV Repairs,Hyderabad,17.39000400854523,78.50326207338861,89
Gautami Mobile & EV Repairs,Hyderabad,17.42583693513966,78.51268310143635,65
Orinder Mobile & EV Repairs,Bengaluru,13.020006493820226,77.61209481850044,118
Garima Mobile & EV Repairs,Bengaluru,12.994276210365415,77.54884347059904,131
Ekani Mobile & EV Repairs,Kochi,9.902571134599544,76.3149681731511,164
Qushi Mobile & EV Repairs,Bengaluru,12.961612343037682,77.55577965399438,41
Lopa Mobile & EV Repairs,Hyderabad,17.42552198908936,78.45175084007356,167
Onveer Mobile & EV Repairs,Chennai,13.123448682880197,80.31892350190931,160
Ayush Mobile & EV Repairs,Hyderabad,17.33577076513356,78.52196625438471,62
Hamsini Mobile & EV Repairs,Kochi,9.915903330383335,76.23948814173349,25
Michael Mobile & EV Repairs,Bengaluru,12.949142204411405,77.56352468295289,196
Amara Mobile & EV Repairs,Hyderabad,17.339339523756248,78.47347615386994,41
Kavya Mobile & EV Repairs,Bengaluru,12.927733695921804,77.54641780846696,80
Zehaan Mobile & EV Repairs,Chennai,13.041507744238173,80.22418270229689,71
Mitesh Mobile & EV Repairs,Kochi,9.92142848551233,76.31386279237037,77
Jyoti Mobile & EV Repairs,Chennai,13.105067735340114,80.27927745338636,176
Luke Mobile & EV Repairs,Hyderabad,17.391188062854752,78.50865971581447,107
Aarini Mobile & EV Repairs,Hyderabad,17.398967812303205,78.4488537605543,36
Sanya Mobile & EV Repairs,Hyderabad,17.389316410974804,78.50736852658417,26
Kamya Mobile & EV Repairs,Hyderabad,17.379898031825125,78.48977109106657,173
Yashoda Mobile & EV Repairs,Kochi,9.885971648812694,76.23995598140289,41
Anvi Mobile & EV Repairs,Hyderabad,17.356943714009837,78.45384822888289,115
Arjun Mobile & EV Repairs,Bengaluru,12.944857425858945,77.56402067732583,89
Ucchal Mobile & EV Repairs,Hyderabad,17.380696263036125,78.50545024382508,35
Jason Mobile & EV Repairs,Hyderabad,17.35915574394027,78.46451450756742,113
Yutika Mobile & EV Repairs,Bengaluru,12.982794964366311,77.6389527744358,79
Praneel Mobile & EV Repairs,Chennai,13.077058789037354,80.24044853572829,181
Ekanta Mobile & EV Repairs,Hyderabad,17.375698454494927,78.50621726896213,121
Deepa Mobile & EV Repairs,Hyderabad,17.41982441346167,78.50213941568248,165
Ekapad Mobile & EV Repairs,Hyderabad,17.422473149697975,78.45770079027247,163
Vyanjana Mobile & EV Repairs,Hyderabad,17.379722517024728,78.50923724238727,121
Amol Mobile & EV Repairs,Hyderabad,17.37888809882097,78.44510693566686,109
Bhavani Mobile & EV Repairs,Chennai,13.132440675919424,80.25521723689438,66
Darpan Mobile & EV Repairs,Chennai,13.113293174150314,80.29123760973033,137
Ranbir Mobile & EV Repairs,Kochi,9.944529155062101,76.26915195568239,142
Aarini Mobile & EV Repairs,Bengaluru,12.983056291233487,77.61400639480581,180
Chameli Mobile & EV Repairs,Kochi,9.904500312028281,76.27958677976692,28
Harsh Mobile & EV Repairs,Chennai,13.04081178276872,80.29056583086273,22
Fiyaz Mobile & EV Repairs,Hyderabad,17.389821564943762,78.44686762889704,115
Qasim Mobile & EV Repairs,Bengaluru,12.937413251064159,77.5777318564054,185
Varsha Mobile & EV Repairs,Hyderabad,17.433220868710407,78.46747202061874,176
Barkha Mobile & EV Repairs,Hyderabad,17.383721746526707,78.52037905574618,70
Ekta Mobile & EV Repairs,Chennai,13.062329371687701,80.30333069555144,112
Chakradhar Mobile & EV Repairs,Bengaluru,13.002565453791002,77.5591640613908,197
Lakshit Mobile & EV Repairs,Kochi,9.952664042148829,76.31203334365586,90
Aashi Mobile & EV Repairs,Chennai,13.08837299714716,80.29966643597251,27
Qarin Mobile & EV Repairs,Kochi,9.941784710553774,76.24982794542589,59
Aarush Mobile & EV Repairs,Chennai,13.103766272261343,80.3134356425593,192
Harsh Mobile & EV Repairs,Bengaluru,12.984417555110372,77.59571076708322,177
Omya Mobile & EV Repairs,Bengaluru,12.986793891938774,77.57509160775457,176
Sarthak Mobile & EV Repairs,Kochi,9.916825876014187,76.24838582250936,183
Arunima Mobile & EV Repairs,Kochi,9.944865019378152,76.2536565894933,107
Nakul Mobile & EV Repairs,Kochi,9.978093977086866,76.30895784637987,116
Dhruv Mobile & EV Repairs,Hyderabad,17.392504277300134,78.50424136018785,101
Diya Mobile & EV Repairs,Chennai,13.08849761213723,80.31628078255994,189
Nitesh Mobile & EV Repairs,Chennai,13.083912571467717,80.3059355397322,190
Neha Mobile & EV Repairs,Bengaluru,13.00733590294144,77.5912094238068,131
Tanay Mobile & EV Repairs,Kochi,9.978980125621304,76.31502926583907,90
Vaishnavi Mobile & EV Repairs,Chennai,13.046020669175974,80.31172938837352,169
Orinder Mobile & EV Repairs,Bengaluru,13.016250605949441,77.55330108890233,97
Maanas Mobile & EV Repairs,Hyderabad,17.369261368489557,78.52409215384507,153
Veda Mobile & EV Repairs,Hyderabad,17.403913735638493,78.47379749299601,183
Rajata Mobile & EV Repairs,Bengaluru,13.010459609957744,77.59883669776845,96
Agastya Mobile & EV Repairs,Chennai,13.070472033148715,80.2812176945491,159
Omisha Mobile & EV Repairs,Chennai,13.124632626030017,80.28969468971218,54
Quincy Mobile & EV Repairs,Chennai,13.103895902207505,80.31990899404553,34
Tripti Mobile & EV Repairs,Bengaluru,13.01693807653951,77.63970085965332,106
Sarthak Mobile & EV Repairs,Chennai,13.042176945028435,80.28362813943356,63
Frederick Mobile & EV Repairs,Bengaluru,13.009213578234624,77.56831084566643,32
Gabriel Mobile & EV Repairs,Bengaluru,12.945034282752083,77.58623494814165,107
Saanvi Mobile & EV Repairs,Kochi,9.98063128587678,76.2686706918598,199
Daksha Mobile & EV Repairs,Kochi,9.972547364683598,76.297512394978,85
Pushti Mobile & EV Repairs,Hyderabad,17.38924063955888,78.50654842955967,45
Zashil Mobile & EV Repairs,Kochi,9.898418983899257,76.26282021801076,58
Yutika Mobile & EV Repairs,Hyderabad,17.406597606864477,78.48553080830153,180
Aarini Mobile & EV Repairs,Hyderabad,17.343469613171646,78.52728101379822,175
Yatan Mobile & EV Repairs,Bengaluru,12.9775341976423,77.5865120832515,23
Pranit Mobile & EV Repairs,Chennai,13.097192205837711,80.23668798321647,123
Christopher Mobile & EV Repairs,Chennai,13.040450134046973,80.3108080013646,65
Warjas Mobile & EV Repairs,Chennai,13.07518300267652,80.23604273664372,167
Imaran Mobile & EV Repairs,Kochi,9.923840489478037,76.24831320809876,155
Hredhaan Mobile & EV Repairs,Hyderabad,17.35708557794929,78.46778724534964,199
Arunima Mobile & EV Repairs,Kochi,9.962675045287988,76.26168617091311,172
Anita Mobile & EV Repairs,Kochi,9.887963445415906,76.26807275291485,56
Ati Mobile & EV Repairs,Bengaluru,12.964943370099808,77.58034939242663,176
Bhavya Mobile & EV Repairs,Bengaluru,12.96345934567698,77.57628699698978,100
Rachit Mobile & EV Repairs,Hyderabad,17.431682760758434,78.47442788983781,149
Samar Mobile & EV Repairs,Bengaluru,12.982729716656914,77.61154472930485,108
Jalsa Mobile & EV Repairs,Chennai,13.037815111080073,80.27401213905893,35
Janya Mobile & EV Repairs,Hyderabad,17.408590212050488,78.5346417887775,98
Nitesh Mobile & EV Repairs,Chennai,13.047641280722706,80.25962931262175,41
Faras Mobile & EV Repairs,Kochi,9.908062314796464,76.29425529467046,77
Tanish Mobile & EV Repairs,Chennai,13.057279609811484,80.27545329772059,124
Sachi Mobile & EV Repairs,Kochi,9.88711902240296,76.21944554024647,102
Guneet Mobile & EV Repairs,Chennai,13.053764584433374,80.2246355009462,169
Omya Mobile & EV Repairs,Hyderabad,17.363353103908874,78.44668227665129,163
Laban Mobile & EV Repairs,Chennai,13.113646110782458,80.31877018310657,66
Vihaan Mobile & EV Repairs,Kochi,9.917840294077406,76.24077479316409,193
Triveni Mobile & EV Repairs,Bengaluru,12.955432941514744,77.62063905539246,27
Anirudh Mobile & EV Repairs,Kochi,9.91850786739517,76.22168089300064,82
Dipta Mobile & EV Repairs,Bengaluru,12.932362519160176,77.54464907387882,110
Dayamai Mobile & EV Repairs,Hyderabad,17.38841894916598,78.51665510857895,35
Anya Mobile & EV Repairs,Kochi,9.893182411558588,76.31689288704415,27
Robert Mobile & EV Repairs,Kochi,9.89657874110277,76.30498498716122,47
Upasna Mobile & EV Repairs,Hyderabad,17.3577098205962,78.50911920268669,73
Adweta Mobile & EV Repairs,Chennai,13.130660208540947,80.29123827654685,125
Ekta Mobile & EV Repairs,Kochi,9.952573980342926,76.24218438563014,183
Ijaya Mobile & EV Repairs,Hyderabad,17.414280063392038,78.4641567897963,30
Anjali Mobile & EV Repairs,Kochi,9.90947057138753,76.21746927648971,106
Sachi Mobile & EV Repairs,Kochi,9.92184758757111,76.3024110532202,82
Frado Mobile & EV Repairs,Chennai,13.08280511746676,80.31854761103445,33
Vedhika Mobile & EV Repairs,Bengaluru,12.958063572596625,77.55242849175751,163
Tara Mobile & EV Repairs,Bengaluru,12.96627456484793,77.62680206155717,37
Jeremiah Mobile & EV Repairs,Kochi,9.914693567067383,76.28529700087097,105
Samar Mobile & EV Repairs,Bengaluru,12.965227022593792,77.55906416894129,139
Mekhala Mobile & EV Repairs,Chennai,13.10758516320633,80.2523870559477,185
Ekaraj Mobile & EV Repairs,Kochi,9.883876333825027,76.28667652521065,197
Nimrat Mobile & EV Repairs,Hyderabad,17.41005201478769,78.43845940212391,125
Nicholas Mobile & EV Repairs,Hyderabad,17.398505738189826,78.5106887049943,63
Logan Mobile & EV Repairs,Chennai,13.051205665130517,80.27946053135737,21
Wishi Mobile & EV Repairs,Chennai,13.104477831234481,80.22633712061571,112
Xiti Mobile & EV Repairs,Hyderabad,17.417010380559475,78.44392403809101,69
Jai Mobile & EV Repairs,Chennai,13.037088972783305,80.30261273243947,194
Wakeeta Mobile & EV Repairs,Hyderabad,17.37562380660233,78.47071356495137,85
Atharv Mobile & EV Repairs,Kochi,9.965381787004329,76.24876033755443,74
Karan Mobile & EV Repairs,Kochi,9.955506445979115,76.26557328000686,107
Jeet Mobile & EV Repairs,Chennai,13.128598341628944,80.26266026343741,140
Dalaja Mobile & EV Repairs,Bengaluru,12.990254983190697,77.59335848205252,56
Janya Mobile & EV Repairs,Chennai,13.052001495995007,80.24532936989483,57
Yachana Mobile & EV Repairs,Hyderabad,17.34239896816094,78.48051449241285,154
Tanay Mobile & EV Repairs,Chennai,13.088377857115823,80.26373522461228,129
Samuel Mobile & EV Repairs,Chennai,13.054354479934682,80.28945081816437,52
Pavani Mobile & EV Repairs,Kochi,9.923117670066627,76.2734668969614,191
Zilmil Mobile & EV Repairs,Bengaluru,12.94569149800077,77.54983127707989,114
Nachiket Mobile & EV Repairs,Kochi,9.932539274876076,76.24024198196385,32
Robert Mobile & EV Repairs,Chennai,13.086107552363002,80.27256665108472,131
Nikita Mobile & EV Repairs,Bengaluru,12.973417399929954,77.56562337832565,63
Chaitanya Mobile & EV Repairs,Chennai,13.123053132345605,80.22676649664592,31
Jalsa Mobile & EV Repairs,Kochi,9.924253745187379,76.29525595383286,163
Rajata Mobile & EV Repairs,Hyderabad,17.404852942999188,78.45877895058425,160
Kalpit Mobile & EV Repairs,Kochi,9.904250182493856,76.25692868194892,132
Baljiwan Mobile & EV Repairs,Hyderabad,17.38418859999651,78.53486599118024,122
Yug Mobile & EV Repairs,Chennai,13.052663449227826,80.2648295594141,85
Bhavya Mobile & EV Repairs,Kochi,9.963260750016191,76.22193741503779,168
Michael Mobile & EV Repairs,Bengaluru,12.92747760160228,77.59821994214398,117
Viraj Mobile & EV Repairs,Kochi,9.907860502935678,76.29235958519148,61
Dev Mobile & EV Repairs,Bengaluru,12.941167986174841,77.60835301066763,196
Lavanya Mobile & EV Repairs,Chennai,13.09544647022558,80.23060046768767,163
Balendra Mobile & EV Repairs,Chennai,13.04289072519735,80.31772621469783,177
Ranbir Mobile & EV Repairs,Hyderabad,17.39976638417469,78.48002411285621,76
Anjali Mobile & EV Repairs,Bengaluru,12.99502887676734,77.55865072885513,41
Qushi Mobile & EV Repairs,Hyderabad,17.38924068945625,78.45313476704952,64
Faraj Mobile & EV Repairs,Hyderabad,17.399951281878355,78.53433618298573,48
Dalaja Mobile & EV Repairs,Kochi,9.887956051912642,76.26529484027095,76
Nilima Mobile & EV Repairs,Bengaluru,13.016172443429276,77.59079309070499,64
Baljiwan Mobile & EV Repairs,Bengaluru,12.932326182069858,77.61797044266662,132
Faqid Mobile & EV Repairs,Bengaluru,12.957258039442726,77.61322245069226,83
Banjeet Mobile & EV Repairs,Chennai,13.130841226023522,80.23187617035211,20
Ethan Mobile & EV Repairs,Kochi,9.959515885492063,76.23098780048,95
Chameli Mobile & EV Repairs,Bengaluru,12.924412054189347,77.63073846793097,86
Bishakha Mobile & EV Repairs,Kochi,9.914715742738313,76.22692047826162,131
Adya Mobile & EV Repairs,Hyderabad,17.343123091234087,78.5286345966144,116
Chavvi Mobile & EV Repairs,Bengaluru,12.986727225620816,77.60825576927995,60
Maya Mobile & EV Repairs,Bengaluru,12.923374185543183,77.64014907556626,177
Gunbir Mobile & EV Repairs,Chennai,13.114454896217108,80.22821238735392,78
Sanaya Mobile & EV Repairs,Hyderabad,17.364424595381717,78.52462651875278,191
Azaan Mobile & EV Repairs,Hyderabad,17.34321666187928,78.45701167530113,173
Harinakshi Mobile & EV Repairs,Chennai,13.111715698524305,80.3006307662333,60
Yashawini Mobile & EV Repairs,Chennai,13.066281944353547,80.29414368210294,159
Kamala Mobile & EV Repairs,Kochi,9.973368504818703,76.2518110367416,134
Oni Mobile & EV Repairs,Chennai,13.130367049024498,80.31549609870542,71
Zashil Mobile & EV Repairs,Bengaluru,12.987282085362649,77.58703610907554,181
Omya Mobile & EV Repairs,Kochi,9.903194587542362,76.28652126610467,103
Caleb Mobile & EV Repairs,Chennai,13.117633227141775,80.29555475341529,142
Vedant Mobile & EV Repairs,Chennai,13.116750495149782,80.25907957435041,122
Yashoda Mobile & EV Repairs,Bengaluru,12.95403674953864,77.582348758509,72
Urvashi Mobile & EV Repairs,Hyderabad,17.403529942829184,78.49106762682423,41
Parth Mobile & EV Repairs,Chennai,13.09605653864965,80.31367721066124,196
Yasti Mobile & EV Repairs,Bengaluru,12.968001958299748,77.64121327228607,165
Dev Mobile & EV Repairs,Bengaluru,12.962899486322875,77.5781747316415,90
Yashodhara Mobile & EV Repairs,Chennai,13.061154533091411,80.2929963133874,59
Yug Mobile & EV Repairs,Hyderabad,17.409813757058224,78.43814033396205,150
Lajita Mobile & EV Repairs,Bengaluru,13.013388767404233,77.63341071107067,175
Rishi Mobile & EV Repairs,Kochi,9.980710733773078,76.24098457695405,49
Thomas Mobile & EV Repairs,Hyderabad,17.38098634222453,78.49425213429829,140
Aryan Mobile & EV Repairs,Chennai,13.070891150933395,80.2512369268241,96
Girik Mobile & EV Repairs,Hyderabad,17.40610453597902,78.47214652370542,69
Ranbir Mobile & EV Repairs,Chennai,13.10283228916283,80.30923022211414,122
Azad Mobile & EV Repairs,Bengaluru,13.010082978270182,77.59448935464901,23
Harinakshi Mobile & EV Repairs,Kochi,9.90645009355524,76.264975570684,103
Raghav Mobile & EV Repairs,Hyderabad,17.409924519553133,78.51591047033524,73
Anamika Mobile & EV Repairs,Bengaluru,12.96817050981992,77.54581333194571,29
Zinal Mobile & EV Repairs,Kochi,9.916423449722629,76.24004756073543,35
Manan Mobile & EV Repairs,Hyderabad,17.429815785568277,78.47350748553701,83
Onkar Mobile & EV Repairs,Bengaluru,12.991550279118028,77.61934543524514,96
Sachi Mobile & EV Repairs,Hyderabad,17.412740494531434,78.4472425367591,184
Yatan Mobile & EV Repairs,Kochi,9.94376255029656,76.2593357947571,179
Jonathan Mobile & EV Repairs,Bengaluru,12.933528673938847,77.56385380884943,144
Edhitha Mobile & EV Repairs,Bengaluru,12.99265370784328,77.61773513232045,131
Arjun Mobile & EV Repairs,Hyderabad,17.3564319595018,78.49972273559064,149
Wyatt Mobile & EV Repairs,Bengaluru,12.945905066572783,77.55536307526296,196
Warda Mobile & EV Repairs,Hyderabad,17.38220126894655,78.51287553299258,175
Umang Mobile & EV Repairs,Kochi,9.936227422081918,76.30254637195476,156
Jagrati Mobile & EV Repairs,Hyderabad,17.408891676200692,78.47069323940396,52
Agastya Mobile & EV Repairs,Kochi,9.923333825163533,76.31656291932038,22
Shravya Mobile & EV Repairs,Hyderabad,17.37384030168569,78.49162182718881,105
Vamakshi Mobile & EV Repairs,Bengaluru,12.93373662472576,77.5473875527889,61
Kabir Mobile & EV Repairs,Chennai,13.112563418343784,80.2619324555249,107
Zarna Mobile & EV Repairs,Bengaluru,12.947308482821716,77.60737398076584,131
Libni Mobile & EV Repairs,Kochi,9.884374443833423,76.2891893448091,102
Alka Mobile & EV Repairs,Bengaluru,12.942477777062509,77.59815450520426,85
Vamakshi Mobile & EV Repairs,Kochi,9.898797358952434,76.30280438786608,35
Vamakshi Mobile & EV Repairs,Kochi,9.913642490898125,76.23352687588725,150
Frado Mobile & EV Repairs,Bengaluru,13.015870158025233,77.59719881853763,198
Darsh Mobile & EV Repairs,Kochi,9.890982006700224,76.2218952950209,115
Jhalak Mobile & EV Repairs,Chennai,13.106063625026252,80.25778109219078,62
Ayush Mobile & EV Repairs,Chennai,13.07581187185421,80.26252765814485,163
Ira Mobile & EV Repairs,Bengaluru,12.957088260297144,77.64137183907073,123
Nachiket Mobile & EV Repairs,Chennai,13.076438979072385,80.24423242878014,67
Charita Mobile & EV Repairs,Kochi,9.946854565438278,76.29603706817133,118
Anjali Mobile & EV Repairs,Kochi,9.887686332279406,76.24324216749461,120
Andrew Mobile & EV Repairs,Kochi,9.958811206496655,76.2944645137061,58
Neel Mobile & EV Repairs,Bengaluru,13.009059371488982,77.55033223731478,112
Jonathan Mobile & EV Repairs,Kochi,9.92049914441047,76.27471992781624,98
Chandani Mobile & EV Repairs,Bengaluru,12.978232172863907,77.5473450266972,96
Eshana Mobile & EV Repairs,Bengaluru,12.974427365364924,77.60884118118233,98
Aryan Mobile & EV Repairs,Kochi,9.907181465483832,76.23194713812035,196
Tanvi Mobile & EV Repairs,Kochi,9.905489050574,76.2627348386012,89
Ayaan Mobile & EV Repairs,Bengaluru,12.98545788939233,77.63254005316351,26
Eesha Mobile & EV Repairs,Hyderabad,17.374591035062807,78.46825223490673,123
Jyoti Mobile & EV Repairs,Bengaluru,12.923994937467171,77.64018686366686,23
Dev Mobile & EV Repairs,Hyderabad,17.415235332943574,78.52836155860058,167
Harshil Mobile & EV Repairs,Kochi,9.887219495883501,76.31650609513937,50
Yatan Mobile & EV Repairs,Bengaluru,12.92417133600719,77.57805411105396,113
Turvi Mobile & EV Repairs,Kochi,9.937080434700235,76.2198618926228,105
Odika Mobile & EV Repairs,Chennai,13.049171970867253,80.25558403665985,81
Mugdha Mobile & EV Repairs,Bengaluru,13.01787271806736,77.61430788124198,125
Rishi Mobile & EV Repairs,Chennai,13.105772744344542,80.29178977007128,89
Varenya Mobile & EV Repairs,Chennai,13.100285047185897,80.31800603809387,78
Chandani Mobile & EV Repairs,Hyderabad,17.386028339023966,78.44276250349863,25
Jagat Mobile & EV Repairs,Kochi,9.95546391298268,76.28883240360018,96
Kashvi Mobile & EV Repairs,Chennai,13.105348328422743,80.29990991065765,81
Gaurika Mobile & EV Repairs,Chennai,13.04805485104736,80.23688429989615,170
Vrishti Mobile & EV Repairs,Chennai,13.12658648878433,80.31596826785501,81
Bimala Mobile & EV Repairs,Hyderabad,17.38870271213433,78.53417653334881,161
Krish Mobile & EV Repairs,Bengaluru,12.942026856711752,77.62118954647802,47
Ayushman Mobile & EV Repairs,Bengaluru,12.998103679586604,77.54602835754015,163
Fiyaz Mobile & EV Repairs,Bengaluru,12.975165823065732,77.62883769248197,198
Baljiwan Mobile & EV Repairs,Hyderabad,17.382413622299723,78.4446003326607,106
Harsh Mobile & EV Repairs,Kochi,9.943947067588205,76.26130810505792,165
Ranbir Mobile & EV Repairs,Kochi,9.952834981276972,76.2853864134154,77
Nakul Mobile & EV Repairs,Hyderabad,17.3914000537416,78.45625286991202,35
Eesha Mobile & EV Repairs,Chennai,13.098165825690927,80.23871240207835,156
Panini Mobile & EV Repairs,Kochi,9.913931835848514,76.2311579619897,160
Ayush Mobile & EV Repairs,Bengaluru,12.96378752958493,77.63867265027008,177
Varsha Mobile & EV Repairs,Chennai,13.097777902142257,80.24504072795051,128
Sanya Mobile & EV Repairs,Bengaluru,12.976833558364737,77.60211699134328,117
Dipta Mobile & EV Repairs,Bengaluru,12.957482885694043,77.61536292991451,97
Raagini Mobile & EV Repairs,Bengaluru,12.96478864458016,77.5833969614852,200
Jagvi Mobile & EV Repairs,Bengaluru,12.93979715077411,77.54908201824712,155
Zarna Mobile & EV Repairs,Chennai,13.047870318925996,80.31438297256895,62
Neel Mobile & EV Repairs,Bengaluru,13.002989258836712,77.57626025842336,186
Ishita Mobile & EV Repairs,Chennai,13.051024205306291,80.30180271649415,28
Vedhika Mobile & EV Repairs,Bengaluru,12.97619116463081,77.56855515296714,51
Anika Mobile & EV Repairs,Kochi,9.891156446639789,76.22281591705145,110
Krishna Mobile & EV Repairs,Kochi,9.888965133774837,76.24332947416339,97
Elijah Mobile & EV Repairs,Chennai,13.040861675135645,80.29042021162044,148
Ayush Mobile & EV Repairs,Chennai,13.085282387086323,80.25487262916698,190
Falak Mobile & EV Repairs,Hyderabad,17.376619909065372,78.45747919946614,104
Devansh Mobile & EV Repairs,Hyderabad,17.372872006122865,78.450898015402,151
Dayita Mobile & EV Repairs,Bengaluru,13.00537623564161,77.59001742402626,69
Joshua Mobile & EV Repairs,Chennai,13.08604532160927,80.28028759618505,94
Balvan Mobile & EV Repairs,Bengaluru,12.961088117025977,77.64318225346142,101
Vihaan Mobile & EV Repairs,Hyderabad,17.38031159682423,78.5007642259852,173
Chandran Mobile & EV Repairs,Hyderabad,17.365230994862582,78.50246017366173,35
Mitesh Mobile & EV Repairs,Kochi,9.956897068463668,76.23928932975909,65
Aahana Mobile & EV Repairs,Chennai,13.130888752876414,80.2903499099264,188
Isaiah Mobile & EV Repairs,Hyderabad,17.396097738412877,78.52886864762093,182
Aayush Mobile & EV Repairs,Chennai,13.050631455859845,80.24511674747141,191
Jatin Mobile & EV Repairs,Chennai,13.131636397531038,80.23646575593567,120
Xavier Mobile & EV Repairs,Kochi,9.948788174993398,76.25911125509005,135
Harish Mobile & EV Repairs,Chennai,13.090993356378341,80.29822731449734,36
Harita Mobile & EV Repairs,Chennai,13.035912962605357,80.24500247143527,59
Rayaan Mobile & EV Repairs,Kochi,9.95756412866437,76.3026507672165,108
Avi Mobile & EV Repairs,Chennai,13.078767702842024,80.2332941326194,76
Rudra Mobile & EV Repairs,Hyderabad,17.42234785837821,78.44347084460541,110
Gaurangi Mobile & EV Repairs,Kochi,9.915245586147668,76.21954806790245,82
Agastya Mobile & EV Repairs,Hyderabad,17.395725725023425,78.51696355471942,140
Darsh Mobile & EV Repairs,Kochi,9.945991824106489,76.30782237024108,73
Devika Mobile & EV Repairs,Chennai,13.039426966206287,80.24052335171115,140
Yadavi Mobile & EV Repairs,Hyderabad,17.4062919259251,78.51772520646844,138
Jason Mobile & EV Repairs,Chennai,13.077492024721375,80.31538618753004,20
Mason Mobile & EV Repairs,Hyderabad,17.379285074741738,78.49105360988486,197
Darika Mobile & EV Repairs,Bengaluru,12.978317761300008,77.57146970371272,196
Neha Mobile & EV Repairs,Bengaluru,12.976776645751784,77.58464920711539,116
Vinaya Mobile & EV Repairs,Chennai,13.101152190679931,80.28359755075675,37
Robert Mobile & EV Repairs,Bengaluru,13.00410828768484,77.64455194877351,144
Avni Mobile & EV Repairs,Chennai,13.052184112508435,80.24216971176769,21
Praneel Mobile & EV Repairs,Chennai,13.082584386794633,80.25315560505116,184
Zayan Mobile & EV Repairs,Bengaluru,12.954330933845963,77.5762492716378,116
Damini Mobile & EV Repairs,Kochi,9.9361373290422,76.24257760147046,95
Naveen Mobile & EV Repairs,Bengaluru,12.980150682830892,77.57776099099861,114
Riya Mobile & EV Repairs,Chennai,13.052146916633097,80.30481783121157,122
Saanvi Mobile & EV Repairs,Hyderabad,17.349387958056862,78.50237474948273,36
Azad Mobile & EV Repairs,Hyderabad,17.35101911284329,78.46665602559128,33
Rehaan Mobile & EV Repairs,Chennai,13.075667370576667,80.29312069061965,136
Rajata Mobile & EV Repairs,Kochi,9.886105851189964,76.2511845607809,24
Urishilla Mobile & EV Repairs,Hyderabad,17.375245052532527,78.53045063739515,177
Vansha Mobile & EV Repairs,Chennai,13.103559296281741,80.30806523362473,196
Jagdish Mobile & EV Repairs,Bengaluru,13.001315466180877,77.59900209958914,80
Saanvi Mobile & EV Repairs,Bengaluru,13.011114569142254,77.62717203620453,132
Odika Mobile & EV Repairs,Chennai,13.116029088852189,80.267183535422,147
Upkaar Mobile & EV Repairs,Bengaluru,12.926877725769856,77.61590150525154,177
Naveen Mobile & EV Repairs,Hyderabad,17.366742861826616,78.47390817793678,45
Abhiram Mobile & EV Repairs,Bengaluru,13.016825174785614,77.56741234985758,74
Sara Mobile & EV Repairs,Bengaluru,12.964311841891575,77.58051407681606,192
Gautam Mobile & EV Repairs,Bengaluru,13.004784840032876,77.57067450196736,112
Ryan Mobile & EV Repairs,Hyderabad,17.39754113997263,78.47800412130633,118
Nathan Mobile & EV Repairs,Chennai,13.089648096883748,80.22559164453268,25
Samuel Mobile & EV Repairs,Chennai,13.067404929257307,80.23144951230641,105
Hamsini Mobile & EV Repairs,Chennai,13.090096535663394,80.23564290177706,147
Vyanjana Mobile & EV Repairs,Chennai,13.085004557778333,80.24853490879791,83
Abeer Mobile & EV Repairs,Hyderabad,17.342115561810683,78.45534897302356,188
Harini Mobile & EV Repairs,Hyderabad,17.389252821199715,78.48879081190435,198
Sara Mobile & EV Repairs,Kochi,9.97083948239994,76.2805486564768,161
Hritik Mobile & EV Repairs,Hyderabad,17.345919755767316,78.51667492939926,73
Sanya Mobile & EV Repairs,Kochi,9.949206807870457,76.31623835685158,115
Theodore Mobile & EV Repairs,Hyderabad,17.407178045840535,78.48844074460048,174
Unni Mobile & EV Repairs,Bengaluru,12.921779816217128,77.63754983200768,161
Vyanjana Mobile & EV Repairs,Kochi,9.926741836848437,76.2833564941472,152
Ayaan Mobile & EV Repairs,Hyderabad,17.409587720229005,78.45016443556263,55
Chakradev Mobile & EV Repairs,Kochi,9.915814507905338,76.21968287314085,65
Ekapad Mobile & EV Repairs,Hyderabad,17.395131274097505,78.49624757300055,121
Triya Mobile & EV Repairs,Hyderabad,17.424232562003862,78.49840392526836,151
Yashasvi Mobile & EV Repairs,Bengaluru,13.014362517903148,77.61560410925517,154
Warinder Mobile & EV Repairs,Hyderabad,17.420669278615073,78.47454102824653,75
Ansh Mobile & EV Repairs,Kochi,9.978998514490542,76.28409481977154,63
Christopher Mobile & EV Repairs,Kochi,9.920624583500748,76.26960279185279,85
Yug Mobile & EV Repairs,Bengaluru,12.941613537915158,77.58463743967201,57
Divya Mobile & EV Repairs,Hyderabad,17.408224378451422,78.46928707409113,179
Pranit Mobile & EV Repairs,Bengaluru,13.001934052178646,77.61214010849184,138
Yasti Mobile & EV Repairs,Hyderabad,17.402490655201834,78.48733052905635,121
Advik Mobile & EV Repairs,Hyderabad,17.357190908623267,78.517597222799,169
Bhavna Mobile & EV Repairs,Chennai,13.13157513887595,80.31122077671228,103
Nidhi Mobile & EV Repairs,Hyderabad,17.41069198950342,78.46165318737488,194
Hredhaan Mobile & EV Repairs,Kochi,9.959465509024323,76.21861831364124,25
Chanchal Mobile & EV Repairs,Hyderabad,17.387612353334532,78.48139391625547,166
Sneha Mobile & EV Repairs,Bengaluru,12.975213448491923,77.62777659278423,186
Samuel Mobile & EV Repairs,Bengaluru,12.939288611958688,77.5759344032875,137
Arunima Mobile & EV Repairs,Chennai,13.084071262331104,80.28961484670936,191
Samuel Mobile & EV Repairs,Hyderabad,17.401704720722535,78.44430646571007,108
Yagnesh Mobile & EV Repairs,Hyderabad,17.404300864404885,78.51909961314752,66
Qadim Mobile & EV Repairs,Bengaluru,12.981505701566464,77.57336067595398,193
Brijesh Mobile & EV Repairs,Hyderabad,17.335105083757192,78.49357280126509,167
Jai Mobile & EV Repairs,Chennai,13.066992763219401,80.24801790914077,190
Raksha Mobile & EV Repairs,Kochi,9.935310047511834,76.28547691400463,181
Chavvi Mobile & EV Repairs,Bengaluru,12.984322042564981,77.6049295495309,45
Darika Mobile & EV Repairs,Bengaluru,13.014852698516721,77.61073954992924,160
Nitesh Mobile & EV Repairs,Chennai,13.057523479196982,80.30102814286079,26
Manthan Mobile & EV Repairs,Kochi,9.944548867913968,76.2885500056747,92
Praneel Mobile & EV Repairs,Bengaluru,12.98171260541015,77.61000067080332,68
Advika Mobile & EV Repairs,Hyderabad,17.371067474193037,78.51961557740944,116
Panini Mobile & EV Repairs,Hyderabad,17.38706029873641,78.49843804162522,123
Fitan Mobile & EV Repairs,Hyderabad,17.372664878657478,78.4623226743517,67
Ranbir Mobile & EV Repairs,Chennai,13.052215071572478,80.30888935886486,101
Chameli Mobile & EV Repairs,Chennai,13.113959847056835,80.2292341120765,83
Sarthak Mobile & EV Repairs,Hyderabad,17.395036335158366,78.47875199763276,91
Varsha Mobile & EV Repairs,Kochi,9.945949388200841,76.28908983857099,121
Abeer Mobile & EV Repairs,Bengaluru,12.988621391685095,77.59669753756548,128
Pallavi Mobile & EV Repairs,Bengaluru,13.01435769583308,77.54497810259352,193
Bachittar Mobile & EV Repairs,Hyderabad,17.35224941811007,78.49550182718852,142
Ayushman Mobile & EV Repairs,Hyderabad,17.395233321102065,78.48104704304548,80
Aarnav Mobile & EV Repairs,Chennai,13.076927659425287,80.24849269784806,102
Timothy Mobile & EV Repairs,Hyderabad,17.36581610605584,78.45911089915339,113
Triya Mobile & EV Repairs,Kochi,9.948445032860363,76.2312494835245,35
Aarush Mobile & EV Repairs,Chennai,13.117964596341896,80.23516027205523,132
Hemani Mobile & EV Repairs,Bengaluru,12.972386559776677,77.5489817210915,172
Zilmil Mobile & EV Repairs,Chennai,13.08056054421751,80.30587870657907,126
Januja Mobile & EV Repairs,Hyderabad,17.40911785845257,78.44941213131315,59
Dhriti Mobile & EV Repairs,Hyderabad,17.39668644081286,78.48661864642995,41
Ridhi Mobile & EV Repairs,Hyderabad,17.338883958660855,78.437419701448,154
Zinal Mobile & EV Repairs,Kochi,9.918180776762172,76.29325090581165,110
Brinda Mobile & EV Repairs,Hyderabad,17.372617983709212,78.51196520668934,197
Oviya Mobile & EV Repairs,Kochi,9.976291725459772,76.23251016831608,66
Chameli Mobile & EV Repairs,Hyderabad,17.393332247080508,78.49557524178479,32
Libni Mobile & EV Repairs,Chennai,13.052579457731689,80.24750091782154,69
Wriddhish Mobile & EV Repairs,Kochi,9.932371191591328,76.2203423583621,108
Nimrat Mobile & EV Repairs,Chennai,13.131017164980527,80.27102628490012,114
Lila Mobile & EV Repairs,Bengaluru,12.999470600699965,77.59327097547526,184
Aayush Mobile & EV Repairs,Hyderabad,17.409028947221444,78.50913916163529,159
Lakshit Mobile & EV Repairs,Bengaluru,12.947960251091533,77.58761917157862,42
Eta Mobile & EV Repairs,Chennai,13.127611011595503,80.23593129259302,63
Chameli Mobile & EV Repairs,Bengaluru,13.01978505894224,77.62517410925409,36
Vrinda Mobile & EV Repairs,Hyderabad,17.432244213866984,78.5339147902599,177
Amaira Mobile & EV Repairs,Bengaluru,13.003345306305588,77.6079305000572,85
Lipika Mobile & EV Repairs,Bengaluru,12.974202245840619,77.6055014130991,119
Noah Mobile & EV Repairs,Bengaluru,12.9764211250212,77.63097974502335,128
Girik Mobile & EV Repairs,Kochi,9.891726751954149,76.25507689666775,94
Kai Mobile & EV Repairs,Chennai,13.082447348674123,80.28799178566028,135
Rayaan Mobile & EV Repairs,Kochi,9.922417499120378,76.23968516378268,20
Osha Mobile & EV Repairs,Chennai,13.071120776561965,80.25936545220645,39
Anvi Mobile & EV Repairs,Hyderabad,17.37030520353468,78.46328278267106,188
Samesh Mobile & EV Repairs,Hyderabad,17.415078038575796,78.47281196696984,83
Qushi Mobile & EV Repairs,Kochi,9.90088622352556,76.31410632687387,158
Eshana Mobile & EV Repairs,Hyderabad,17.42828851816138,78.43841163215113,196
Isaac Mobile & EV Repairs,Chennai,13.087672909801658,80.28672495824873,51
Zayan Mobile & EV Repairs,Chennai,13.049975356661596,80.23131896868922,34
Amara Mobile & EV Repairs,Hyderabad,17.3424260890627,78.49574878983306,170
Vritti Mobile & EV Repairs,Hyderabad,17.38725438243714,78.52488841470321,138
Ekta Mobile & EV Repairs,Kochi,9.968406782217697,76.25820277915665,179
Jonathan Mobile & EV Repairs,Chennai,13.10224713115759,80.28953524526702,154
Sudiksha Mobile & EV Repairs,Bengaluru,12.998346734753527,77.56303797536376,168
Gautam Mobile & EV Repairs,Bengaluru,13.007355704498238,77.56116662737793,176
Anjali Mobile & EV Repairs,Hyderabad,17.363754236363945,78.51067917635183,119
Lakshit Mobile & EV Repairs,Hyderabad,17.348209198658196,78.52821676306058,83
Widisha Mobile & EV Repairs,Bengaluru,13.006770797029017,77.55469082562972,150
Jason Mobile & EV Repairs,Bengaluru,12.998507551654614,77.56285579169162,195
Oeshi Mobile & EV Repairs,Kochi,9.973565970586238,76.2831486483565,54
Shivansh Mobile & EV Repairs,Bengaluru,13.005874637688429,77.62100918736634,34
Unnati Mobile & EV Repairs,Bengaluru,12.937406417720714,77.55112281431684,54
Bachittar Mobile & EV Repairs,Kochi,9.958107894552773,76.25341690745039,114
Hema Mobile & EV Repairs,Chennai,13.066449640448898,80.25630327272306,146
Harinakshi Mobile & EV Repairs,Kochi,9.900756077395346,76.24786242652145,155
Gaurang Mobile & EV Repairs,Bengaluru,12.952839516365886,77.63438027554851,199
Harinakshi Mobile & EV Repairs,Bengaluru,13.004667311183926,77.6369262305978,35
Vedika Mobile & EV Repairs,Chennai,13.066661529116884,80.25552640215327,84
Vidhi Mobile & EV Repairs,Chennai,13.093504276985964,80.25381549520124,93
Indira Mobile & EV Repairs,Hyderabad,17.41171690134436,78.4796285728521,191
Ekiya Mobile & EV Repairs,Kochi,9.904474461910324,76.25795676656236,32
Madhavi Mobile & EV Repairs,Bengaluru,13.021539472853535,77.5859680765034,65
Rehaan Mobile & EV Repairs,Kochi,9.950029045193434,76.21873890960137,81
Krishna Mobile & EV Repairs,Chennai,13.043271756623756,80.26462797159223,97
Veda Mobile & EV Repairs,Bengaluru,12.92372553215644,77.63684771418158,151
Dayita Mobile & EV Repairs,Kochi,9.963227500958416,76.26632822637588,56
Rayaan Mobile & EV Repairs,Hyderabad,17.407892247892296,78.53194720457049,60
Upasna Mobile & EV Repairs,Hyderabad,17.381649079727673,78.48080271452889,112
Chaman Mobile & EV Repairs,Bengaluru,12.979515611084627,77.57487923086734,184
Yug Mobile & EV Repairs,Kochi,9.882252842588654,76.2265152796871,39
Elijah Mobile & EV Repairs,Hyderabad,17.401593765054212,78.47883496405557,64
Rajata Mobile & EV Repairs,Kochi,9.882455514491111,76.2844121007815,128
Jagdish Mobile & EV Repairs,Bengaluru,12.974630368016955,77.62391715975357,91
Netra Mobile & EV Repairs,Chennai,13.050392148822716,80.23093830510486,44
Yashoda Mobile & EV Repairs,Kochi,9.978870036350589,76.30862570125052,137
Ira Mobile & EV Repairs,Hyderabad,17.368273845533064,78.4734093251145,77
Nimrat Mobile & EV Repairs,Kochi,9.937735213622378,76.24363218056418,158
Januja Mobile & EV Repairs,Hyderabad,17.401932276036337,78.47382272734495,162
Amara Mobile & EV Repairs,Kochi,9.882586397051506,76.30906018690136,176
Mitesh Mobile & EV Repairs,Chennai,13.079393556094915,80.24036237625178,124
Gautami Mobile & EV Repairs,Hyderabad,17.341425558417203,78.43698080242385,36
Wishi Mobile & EV Repairs,Chennai,13.082420126161194,80.2329715545708,21
Anamika Mobile & EV Repairs,Hyderabad,17.379163914597818,78.53592254969618,104
Abhiram Mobile & EV Repairs,Bengaluru,13.002098188193502,77.58513732060928,91
Kavya Mobile & EV Repairs,Hyderabad,17.43079746029499,78.51649508579958,126
Gaurika Mobile & EV Repairs,Hyderabad,17.385913750086242,78.50231137732632,119
Dakshesh Mobile & EV Repairs,Hyderabad,17.358700947417482,78.53632033860492,191
Tristan Mobile & EV Repairs,Kochi,9.930075652016146,76.24119789762065,128
Bishakha Mobile & EV Repairs,Hyderabad,17.38634668743264,78.44924749224248,66
Nicholas Mobile & EV Repairs,Chennai,13.082086900163626,80.26050802954278,117
Yashica Mobile & EV Repairs,Kochi,9.930431896685388,76.26039677921898,171
Baghyawati Mobile & EV Repairs,Chennai,13.111051092785377,80.27892137299152,179
