Business_Name,City,Latitude,Longitude,Est_Monthly_Qty
Rudra Mobile & EV Repairs,Chennai,13.117820616467288,80.28275453666949,20
Nidhi Mobile & EV Repairs,Bengaluru,12.955814541617855,77.54505411992014,152
Fiyaz Mobile & EV Repairs,Bengaluru,13.012126303525644,77.60880968996432,103
Tanvi Mobile & EV Repairs,Bengaluru,12.985232800080414,77.6429215707399,23
Udant Mobile & EV Repairs,Kochi,9.895372565220109,76.2863131471317,55
Ekaja Mobile & EV Repairs,Hyderabad,17.3350059527614,78.48034944848314,149
Yadavi Mobile & EV Repairs,Bengaluru,12.961537095003118,77.56874141868023,182
Chanakya Mobile & EV Repairs,Hyderabad,17.380823870487173,78.45926016922692,133
Udarsh Mobile & EV Repairs,Bengaluru,12.982412197174432,77.5466200034559,161
Balvan Mobile & EV Repairs,Kochi,9.929556838885226,76.26878482437,130
Aadhya Mobile & EV Repairs,Bengaluru,12.950793197139662,77.59990450712459,184
Bakhshi Mobile & EV Repairs,Hyderabad,17.419198142521786,78.43871857123145,176
Anamika Mobile & EV Repairs,Chennai,13.079256417755833,80.32021764304008,40
Finn Mobile & EV Repairs,Kochi,9.945269298656209,76.25732278299444,117
Omkaar Mobile & EV Repairs,Chennai,13.067864346991776,80.25213811343379,127
Chaman Mobile & EV Repairs,Kochi,9.925409089513773,76.2650899026213,46
Nathan Mobile & EV Repairs,Kochi,9.979296256855374,76.30829552995921,179
Watika Mobile & EV Repairs,Chennai,13.09269595457833,80.29825807418857,69
Matthew Mobile & EV Repairs,Chennai,13.100958051817933,80.22971801528898,135
Parth Mobile & EV Repairs,Chennai,13.110907315270543,80.31510233543608,190
Adweta Mobile & EV Repairs,Hyderabad,17.371512876495082,78.46853159345984,23
Bhavini Mobile & EV Repairs,Bengaluru,12.976398618526845,77.58067794367692,179
Vedika Mobile & EV Repairs,Kochi,9.933039243630704,76.21793654047477,159
Mohammed Mobile & EV Repairs,Chennai,13.101422845833817,80.26806299641855,145
Bachittar Mobile & EV Repairs,Kochi,9.938475641549909,76.27840839501407,176
Dhruv Mobile & EV Repairs,Hyderabad,17.362402252865948,78.50096376074934,73
Saumya Mobile & EV Repairs,Hyderabad,17.419945628718672,78.5072583537189,105
Bachittar Mobile & EV Repairs,Hyderabad,17.34203812889497,78.48557956332803,66
Balveer Mobile & EV Repairs,Kochi,9.892898408609529,76.25434908930578,146
Warjas Mobile & EV Repairs,Chennai,13.0911134350619,80.26823414277919,111
Siddharth Mobile & EV Repairs,Bengaluru,12.932859355577861,77.62951873147556,57
Ranveer Mobile & EV Repairs,Chennai,13.033307322504111,80.28503672691261,198
Yatan Mobile & EV Repairs,Kochi,9.893894159348948,76.23584284946513,20
Nathaniel Mobile & EV Repairs,Kochi,9.951520084803098,76.26897212887869,40
Theodore Mobile & EV Repairs,Kochi,9.883562536309007,76.31367292542029,73
Indira Mobile & EV Repairs,Kochi,9.979818659162527,76.25866374345301,59
Sai Mobile & EV Repairs,Bengaluru,12.993836485990096,77.6069245622105,128
Chanchal Mobile & EV Repairs,Chennai,13.099746861216552,80.2866615696084,93
Xavier Mobile & EV Repairs,Hyderabad,17.41991724284163,78.51153701218479,105
Divya Mobile & EV Repairs,Kochi,9.893092694735302,76.25506667499843,33
Parth Mobile & EV Repairs,Kochi,9.963466632582524,76.26907956391514,105
Ridhi Mobile & EV Repairs,Chennai,13.054686476624324,80.22212898160971,136
Robert Mobile & EV Repairs,Kochi,9.919661003180174,76.21916343377778,69
Ekavir Mobile & EV Repairs,Hyderabad,17.418147562433138,78.48170547317619,29
Qadim Mobile & EV Repairs,Kochi,9.980349108602697,76.2438201394302,194
Pahal Mobile & EV Repairs,Chennai,13.08952923124661,80.2981457438561,188
Zilmil Mobile & EV Repairs,Chennai,13.053282432412033,80.24470783493386,190
Chatura Mobile & EV Repairs,Hyderabad,17.361278205208787,78.46164440208203,169
Vidhi Mobile & EV Repairs,Chennai,13.115602825817426,80.22441797148392,40
Darsh Mobile & EV Repairs,Hyderabad,17.379011799748792,78.48400330688982,79
Samarth Mobile & EV Repairs,Kochi,9.943422166508501,76.30486412368192,46
Pratyush Mobile & EV Repairs,Kochi,9.910380864748706,76.26142507985398,56
Noah Mobile & EV Repairs,Bengaluru,12.943748515053812,77.57310996434155,166
Krish Mobile & EV Repairs,Bengaluru,12.954272746542312,77.61354420496319,37
Jason Mobile & EV Repairs,Kochi,9.977274918350371,76.26351887902185,175
Widisha Mobile & EV Repairs,Chennai,13.071627375185187,80.31521238566381,65
Aradhana Mobile & EV Repairs,Hyderabad,17.337977241761205,78.46683088682579,88
Henry Mobile & EV Repairs,Hyderabad,17.37884187554082,78.46313193481481,45
Udant Mobile & EV Repairs,Bengaluru,13.017670773391535,77.55035932401879,162
Zaid Mobile & EV Repairs,Kochi,9.970399567992331,76.29303028041093,52
Laksh Mobile & EV Repairs,Chennai,13.114656708941986,80.27067770466691,73
Nandini Mobile & EV Repairs,Chennai,13.098469238091175,80.27708846049708,64
Chakradev Mobile & EV Repairs,Hyderabad,17.417149044856902,78.53058788495345,27
Turvi Mobile & EV Repairs,Kochi,9.927978965676168,76.29915269210784,74
Joshua Mobile & EV Repairs,Kochi,9.91424685376037,76.30280100713217,187
Bhanumati Mobile & EV Repairs,Hyderabad,17.343027559578147,78.43791916613851,62
Teerth Mobile & EV Repairs,Kochi,9.975022042975306,76.23143701266319,108
Udant Mobile & EV Repairs,Chennai,13.104247509695297,80.25482008625423,191
Ishita Mobile & EV Repairs,Bengaluru,13.017080060058424,77.589366597434,67
Caleb Mobile & EV Repairs,Kochi,9.926591415081612,76.23488613770917,95
Harini Mobile & EV Repairs,Kochi,9.888976718388049,76.30433234280056,51
Ishaan Mobile & EV Repairs,Chennai,13.052894736516308,80.24865676272648,144
Pratyush Mobile & EV Repairs,Chennai,13.1192825360434,80.23298529588654,102
Charan Mobile & EV Repairs,Hyderabad,17.38808739225788,78.50031526019598,34
Brinda Mobile & EV Repairs,Kochi,9.946368680798656,76.27725050482498,22
Ishita Mobile & EV Repairs,Kochi,9.953583661310363,76.28209511452062,69
Ethan Mobile & EV Repairs,Hyderabad,17.336297946567473,78.44091905387471,122
Christopher Mobile & EV Repairs,Chennai,13.108626285484643,80.23679190381601,61
Amara Mobile & EV Repairs,Chennai,13.068083839391829,80.25272673141806,163
Chaaya Mobile & EV Repairs,Hyderabad,17.39551436349077,78.48123697511961,64
Zashil Mobile & EV Repairs,Chennai,13.068168756022908,80.24146151596503,59
Alexander Mobile & EV Repairs,Chennai,13.057666444501837,80.26790956095287,117
Sai Mobile & EV Repairs,Kochi,9.882136834799132,76.2422099063367,81
George Mobile & EV Repairs,Chennai,13.071890417138777,80.22631705813862,34
Ekaja Mobile & EV Repairs,Chennai,13.054007227403131,80.28759124960854,159
Yashawini Mobile & EV Repairs,Chennai,13.095650256694816,80.22070998061609,135
Peter Mobile & EV Repairs,Hyderabad,17.4284109549978,78.49535453400081,177
Triveni Mobile & EV Repairs,Bengaluru,13.00256300673051,77.60516625358714,26
Ubika Mobile & EV Repairs,Chennai,13.060205385692992,80.24115418210845,177
Bhavani Mobile & EV Repairs,Bengaluru,12.942644493553603,77.5718477744855,100
Kiaan Mobile & EV Repairs,Bengaluru,12.96570076514457,77.56533983544787,104
Umang Mobile & EV Repairs,Hyderabad,17.342906840658348,78.50477627179649,185
Omya Mobile & EV Repairs,Bengaluru,12.98655045914356,77.5771784180695,50
Jai Mobile & EV Repairs,Kochi,9.930313599995868,76.2854209597027,138
Abha Mobile & EV Repairs,Hyderabad,17.414433106974712,78.4475196896778,113
Widisha Mobile & EV Repairs,Kochi,9.903508351257994,76.26805020557207,55
Robert Mobile & EV Repairs,Chennai,13.114242942367055,80.27677680964533,46
Janani Mobile & EV Repairs,Chennai,13.105566446064431,80.25672710816548,107
Girish Mobile & EV Repairs,Hyderabad,17.371818615912318,78.43701235865692,53
Mekhala Mobile & EV Repairs,Chennai,13.123675509377897,80.23664698254103,177
Neha Mobile & EV Repairs,Bengaluru,12.998794826852292,77.6317970447688,103
Naveen Mobile & EV Repairs,Kochi,9.93784127214767,76.28912697837528,125
Akshay Mobile & EV Repairs,Bengaluru,12.994175342623212,77.55585850755797,22
Onkar Mobile & EV Repairs,Hyderabad,17.36398830347321,78.49026252290422,92
Ekta Mobile & EV Repairs,Bengaluru,12.999195872800842,77.59638246970358,144
Maanas Mobile & EV Repairs,Hyderabad,17.398169555864683,78.45899035407434,198
Kiaan Mobile & EV Repairs,Hyderabad,17.36888315470147,78.49371329991368,89
Yashvi Mobile & EV Repairs,Chennai,13.131623634197927,80.24215684536095,154
Indira Mobile & EV Repairs,Chennai,13.11260023020416,80.23900053280398,32
Ronith Mobile & EV Repairs,Kochi,9.973566825768645,76.27156530328251,150
Bhavini Mobile & EV Repairs,Chennai,13.122825490795757,80.23183914016818,152
Ekbal Mobile & EV Repairs,Chennai,13.052802868061574,80.25873979774242,178
Rushil Mobile & EV Repairs,Hyderabad,17.399524067391923,78.48394814691044,51
Hemangini Mobile & EV Repairs,Chennai,13.079411130447971,80.30766311530597,33
Manan Mobile & EV Repairs,Hyderabad,17.418879674407048,78.4550823589043,116
Forum Mobile & EV Repairs,Chennai,13.052094070509344,80.30490612016203,130
Zaitra Mobile & EV Repairs,Hyderabad,17.37328843577207,78.51429962662114,171
Gaurangi Mobile & EV Repairs,Bengaluru,12.999364088544677,77.58964921960298,73
Samar Mobile & EV Repairs,Hyderabad,17.41567880264121,78.4853170178796,60
Widisha Mobile & EV Repairs,Kochi,9.973580788847228,76.25811837300404,24
Radhika Mobile & EV Repairs,Hyderabad,17.37363464380974,78.53198237849878,167
Yashoda Mobile & EV Repairs,Kochi,9.908640674950837,76.23770054098252,69
Wriddhish Mobile & EV Repairs,Hyderabad,17.367228105225784,78.45017087000609,171
Aarini Mobile & EV Repairs,Chennai,13.101465798530114,80.29362600881211,41
Lopa Mobile & EV Repairs,Kochi,9.958504232423609,76.31024362111734,172
Abhimanyu Mobile & EV Repairs,Bengaluru,12.972917625841628,77.5591810151906,112
Anvi Mobile & EV Repairs,Bengaluru,12.980705164582858,77.60496677859688,142
Inaya Mobile & EV Repairs,Hyderabad,17.377654217557534,78.50559672030344,144
Reva Mobile & EV Repairs,Chennai,13.099347048038252,80.31771231241959,25
Garima Mobile & EV Repairs,Hyderabad,17.38909009385947,78.48384507640071,150
Avi Mobile & EV Repairs,Kochi,9.931573922341906,76.28304866009097,186
Samesh Mobile & EV Repairs,Kochi,9.968814259151921,76.29322897497106,162
Shivansh Mobile & EV Repairs,Chennai,13.037319563785992,80.30092309175981,127
Thomas Mobile & EV Repairs,Kochi,9.972747434255801,76.2801104427849,105
Indira Mobile & EV Repairs,Kochi,9.917755896265714,76.23503176759455,126
Tanish Mobile & EV Repairs,Hyderabad,17.382233147090464,78.501508404072,70
Zarna Mobile & EV Repairs,Hyderabad,17.42902307828061,78.47106557640157,63
Daksh Mobile & EV Repairs,Hyderabad,17.343929150908988,78.51355781907091,111
Suhani Mobile & EV Repairs,Chennai,13.131787459841906,80.230935969272,71
Charles Mobile & EV Repairs,Kochi,9.944560341330806,76.21995148258748,188
Pranav Mobile & EV Repairs,Chennai,13.095186564938734,80.24734600381426,115
Harrison Mobile & EV Repairs,Kochi,9.917791327458952,76.27191965271115,153
Kevin Mobile & EV Repairs,Bengaluru,12.997515371679887,77.56620089349647,77
Hema Mobile & EV Repairs,Hyderabad,17.370809530594435,78.46832696781702,119
Azad Mobile & EV Repairs,Bengaluru,12.985693427475745,77.58930498144508,59
Owen Mobile & EV Repairs,Hyderabad,17.361014885423273,78.44773702489105,145
Vrinda Mobile & EV Repairs,Chennai,13.05399745011584,80.25113348781423,152
Upma Mobile & EV Repairs,Kochi,9.912716550479054,76.2347914674673,48
Widisha Mobile & EV Repairs,Hyderabad,17.368732124446666,78.45836748706951,153
Yagnesh Mobile & EV Repairs,Hyderabad,17.34143177764112,78.53187583739157,74
Ayushman Mobile & EV Repairs,Hyderabad,17.425285585277464,78.43888087885347,72
Chaitaly Mobile & EV Repairs,Bengaluru,13.02158492142952,77.62553239397418,122
Deepa Mobile & EV Repairs,Chennai,13.062498788047359,80.31570941140923,90
Kashish Mobile & EV Repairs,Hyderabad,17.427552987789635,78.5125874870746,197
Thomas Mobile & EV Repairs,Hyderabad,17.39870734679381,78.48024651178932,53
Dayamai Mobile & EV Repairs,Bengaluru,12.942732212785614,77.59565914866658,79
Quincy Mobile & EV Repairs,Chennai,13.130221523120957,80.27034828125598,179
Meghana Mobile & EV Repairs,Hyderabad,17.43430819617579,78.45611641723536,136
Xiti Mobile & EV Repairs,Bengaluru,12.958896839844789,77.63427631995097,122
Udant Mobile & EV Repairs,Chennai,13.039278397247639,80.28171634937425,94
Vincent Mobile & EV Repairs,Bengaluru,12.922207324774714,77.6266844807939,62
Hiral Mobile & EV Repairs,Hyderabad,17.394191630481487,78.5244167266469,130
Vamakshi Mobile & EV Repairs,Chennai,13.090692418236193,80.23943218715787,28
Mohini Mobile & EV Repairs,Bengaluru,12.941201838292775,77.55636520298326,169
Urvi Mobile & EV Repairs,Bengaluru,12.95563627574547,77.63286813493484,159
Ishita Mobile & EV Repairs,Kochi,9.943653354440876,76.21768661391224,145
Abdul Mobile & EV Repairs,Chennai,13.042974851211044,80.2460193009449,100
Yuvraj Mobile & EV Repairs,Chennai,13.09156658686671,80.31878170952542,197
Bhavya Mobile & EV Repairs,Kochi,9.981191839740477,76.30147847332609,30
Dev Mobile & EV Repairs,Hyderabad,17.352112803925998,78.49304870114834,137
Vrishti Mobile & EV Repairs,Kochi,9.889108852819174,76.24774835310063,63
Ikbal Mobile & EV Repairs,Chennai,13.110842701958973,80.24740518512348,78
Kashish Mobile & EV Repairs,Kochi,9.948321520527456,76.30285787311637,96
Anya Mobile & EV Repairs,Kochi,9.897311309891695,76.31452862250221,37
Harsh Mobile & EV Repairs,Hyderabad,17.335796153462688,78.4880542639597,106
Sai Mobile & EV Repairs,Kochi,9.938859182115891,76.30493295752885,81
Ekani Mobile & EV Repairs,Bengaluru,12.954500663425732,77.61040940325543,34
Chanakya Mobile & EV Repairs,Chennai,13.044203905634363,80.2289607297648,70
Ranbir Mobile & EV Repairs,Hyderabad,17.35564588727782,78.48176372679218,197
Neel Mobile & EV Repairs,Chennai,13.050958599259419,80.26659379947097,123
Samesh Mobile & EV Repairs,Hyderabad,17.36915097935251,78.45987355106351,44
Dipta Mobile & EV Repairs,Bengaluru,12.97150289291757,77.60716831854441,92
Leela Mobile & EV Repairs,Kochi,9.95119083258601,76.3078304376604,61
Oliver Mobile & EV Repairs,Kochi,9.980299319246427,76.25050096033469,166
Ekantika Mobile & EV Repairs,Chennai,13.083847918397161,80.31025155018195,56
Triya Mobile & EV Repairs,Chennai,13.043124196133391,80.31062608251075,105
Shravya Mobile & EV Repairs,Kochi,9.945250824738348,76.28113572947129,176
Ishaan Mobile & EV Repairs,Chennai,13.10221924119416,80.30358310297693,28
Frado Mobile & EV Repairs,Bengaluru,12.995944333813027,77.55342953610257,92
Prisha Mobile & EV Repairs,Chennai,13.047815529738125,80.27692179866244,198
Dalaja Mobile & EV Repairs,Hyderabad,17.402927984976174,78.5283420382452,41
Jagat Mobile & EV Repairs,Chennai,13.056304005045847,80.22808613552588,151
Gaurav Mobile & EV Repairs,Kochi,9.902136211143633,76.28718193476907,99
Indrajit Mobile & EV Repairs,Bengaluru,13.001286374026012,77.58085005119078,64
Advik Mobile & EV Repairs,Kochi,9.948882360274869,76.24441203628305,129
Joshua Mobile & EV Repairs,Kochi,9.975206236454444,76.22475552890737,104
Indrajit Mobile & EV Repairs,Kochi,9.93726961940919,76.30969411628183,64
Abeer Mobile & EV Repairs,Chennai,13.033101460001413,80.29324119712356,116
Omisha Mobile & EV Repairs,Kochi,9.886369228654669,76.26610756022116,159
Falak Mobile & EV Repairs,Bengaluru,13.014843968585224,77.59327108382544,185
Keya Mobile & EV Repairs,Chennai,13.0952712418248,80.23710788690468,56
Vasatika Mobile & EV Repairs,Hyderabad,17.376013734458756,78.49774273831245,36
Lila Mobile & EV Repairs,Kochi,9.937023649098856,76.23954794033484,145
Harshil Mobile & EV Repairs,Kochi,9.886221145073536,76.22861869682747,62
Rudra Mobile & EV Repairs,Bengaluru,13.009124406359932,77.55152947278025,135
Isha Mobile & EV Repairs,Kochi,9.903349373491723,76.25059025503371,21
Udant Mobile & EV Repairs,Chennai,13.102159203691889,80.29994509943228,115
Panini Mobile & EV Repairs,Hyderabad,17.431823758311353,78.53062608635958,44
Omkaar Mobile & EV Repairs,Hyderabad,17.434608551293785,78.436836071409,194
Chandran Mobile & EV Repairs,Bengaluru,12.960765067591439,77.62072157829007,23
Indali Mobile & EV Repairs,Chennai,13.114342837083381,80.2509085015672,78
Nidhi Mobile & EV Repairs,Hyderabad,17.433243685219246,78.46623234229716,97
Gagan Mobile & EV Repairs,Kochi,9.953212788098066,76.25682889076411,70
Gauri Mobile & EV Repairs,Chennai,13.131328771558678,80.2566263496582,132
Elijah Mobile & EV Repairs,Bengaluru,12.98386470282945,77.56022921765509,200
Xavier Mobile & EV Repairs,Chennai,13.086262067426874,80.26316259624973,82
Yahvi Mobile & EV Repairs,Chennai,13.043285377146344,80.29954755132142,44
Harsh Mobile & EV Repairs,Kochi,9.918412677026273,76.23141919378456,100
Ladli Mobile & EV Repairs,Chennai,13.069309123702297,80.26800762056467,151
Charita Mobile & EV Repairs,Bengaluru,12.929831821012863,77.54810264013928,42
Anusha Mobile & EV Repairs,Chennai,13.129693024065539,80.24083487428032,161
Lakshit Mobile & EV Repairs,Hyderabad,17.33622705821142,78.51751103211829,115
Lucky Mobile & EV Repairs,Hyderabad,17.386982462284518,78.53351014816256,105
Harita Mobile & EV Repairs,Chennai,13.106245796946782,80.25155869399852,174
Zashil Mobile & EV Repairs,Bengaluru,12.92687379570574,77.61121300347814,69
Yamini Mobile & EV Repairs,Bengaluru,13.014582847535392,77.60372925015587,111
Benjamin Mobile & EV Repairs,Bengaluru,12.924814387438692,77.59560892022158,137
Charan Mobile & EV Repairs,Hyderabad,17.41377282804921,78.51501081601643,60
Shaurya Mobile & EV Repairs,Bengaluru,12.985305456375052,77.59285518814451,120
Qabil Mobile & EV Repairs,Hyderabad,17.351245655315445,78.46408016663958,124
Rishi Mobile & EV Repairs,Hyderabad,17.375441388093297,78.51680174035343,186
Baljiwan Mobile & EV Repairs,Bengaluru,12.987857704959291,77.55953852693469,112
Xalak Mobile & EV Repairs,Chennai,13.0781286844151,80.28506626546711,151
Manan Mobile & EV Repairs,Chennai,13.053989053372279,80.30779206670113,130
Onkar Mobile & EV Repairs,Hyderabad,17.423758582301154,78.50618870575337,193
Chatresh Mobile & EV Repairs,Kochi,9.896891606608397,76.3039174747186,135
Darika Mobile & EV Repairs,Kochi,9.902980206982393,76.2620387517479,100
Janaki Mobile & EV Repairs,Bengaluru,12.949569370257754,77.56434920346364,66
Nimrat Mobile & EV Repairs,Kochi,9.887723900335956,76.26412994663221,145
Jack Mobile & EV Repairs,Kochi,9.918197211850414,76.24300615335858,88
Rachit Mobile & EV Repairs,Kochi,9.940905278336803,76.24690873753505,116
Upkaar Mobile & EV Repairs,Kochi,9.903202430568456,76.30748349803025,178
Bina Mobile & EV Repairs,Chennai,13.066918723027625,80.29137632852992,193
Manthan Mobile & EV Repairs,Chennai,13.098103610509705,80.26495011191285,108
Odika Mobile & EV Repairs,Chennai,13.097632861889515,80.28417298489185,35
Arunima Mobile & EV Repairs,Chennai,13.12406154767749,80.24696446957226,40
Priya Mobile & EV Repairs,Bengaluru,12.944179703807793,77.61059951497215,154
Teerth Mobile & EV Repairs,Hyderabad,17.350885132589017,78.46356496386488,184
Dominic Mobile & EV Repairs,Chennai,13.061436137400372,80.30879982931069,127
Benjamin Mobile & EV Repairs,Kochi,9.936046284986185,76.3044095878607,59
Gagan Mobile & EV Repairs,Chennai,13.106697335651898,80.27548357977302,155
Ishaan Mobile & EV Repairs,Kochi,9.927710245292642,76.25996913827154,153
Zilmil Mobile & EV Repairs,Bengaluru,12.922225509111973,77.61201400274948,51
Gauri Mobile & EV Repairs,Kochi,9.95719289344835,76.23329287600143,75
Sudiksha Mobile & EV Repairs,Bengaluru,12.933650990867168,77.58896504338061,66
Rudra Mobile & EV Repairs,Kochi,9.9287245531198,76.31200330797516,177
Shivani Mobile & EV Repairs,Hyderabad,17.35811322302311,78.50124721786445,45
Qabil Mobile & EV Repairs,Chennai,13.099957085871353,80.22352942972094,50
Urishilla Mobile & EV Repairs,Hyderabad,17.38436344462584,78.5239818264419,58
Wahab Mobile & EV Repairs,Bengaluru,12.926731101868388,77.61986401821797,99
Qabil Mobile & EV Repairs,Chennai,13.113988423624194,80.23354768898771,91
Rayaan Mobile & EV Repairs,Chennai,13.064720799510653,80.26008502789544,149
Balveer Mobile & EV Repairs,Chennai,13.062712948282616,80.24062063777667,110
Saksham Mobile & EV Repairs,Kochi,9.906402670043986,76.30174845253423,105
Harish Mobile & EV Repairs,Bengaluru,12.948377512308092,77.56584865667016,155
Watika Mobile & EV Repairs,Bengaluru,12.970962391457206,77.56742228801959,114
Qushi Mobile & EV Repairs,Hyderabad,17.339933408975615,78.44636499333879,95
Naveen Mobile & EV Repairs,Bengaluru,12.993406068849907,77.60247544123798,188
Neha Mobile & EV Repairs,Bengaluru,12.942604895669586,77.59606839307298,89
Chatura Mobile & EV Repairs,Bengaluru,12.968014623646239,77.56786767643352,136
Leela Mobile & EV Repairs,Hyderabad,17.421012156049848,78.52205008526032,44
Gaurang Mobile & EV Repairs,Bengaluru,12.940596675001485,77.60452624425726,26
Wazir Mobile & EV Repairs,Hyderabad,17.345572334995857,78.51113601465389,114
Gopal Mobile & EV Repairs,Kochi,9.971498714587291,76.25967445973194,100
Ekantika Mobile & EV Repairs,Chennai,13.130907549064647,80.22609598041828,28
Faraj Mobile & EV Repairs,Bengaluru,12.960068182480853,77.55102575174364,187
Yuvraj Mobile & EV Repairs,Bengaluru,13.01663044923866,77.55878295912926,180
Vivaan Mobile & EV Repairs,Bengaluru,12.937771240735524,77.61966286868292,59
Victor Mobile & EV Repairs,Kochi,9.968389526145582,76.25424764664376,81
Saanvi Mobile & EV Repairs,Hyderabad,17.384379439839194,78.46911336422038,104
Vihaan Mobile & EV Repairs,Hyderabad,17.377128075320904,78.4410985039613,185
Wahab Mobile & EV Repairs,Hyderabad,17.34742206798854,78.46836758262171,174
Alka Mobile & EV Repairs,Hyderabad,17.34443594664389,78.51000257500095,171
Watika Mobile & EV Repairs,Kochi,9.921063278553635,76.25507657284598,27
Onkar Mobile & EV Repairs,Bengaluru,12.940771217364516,77.56425719408665,153
Teerth Mobile & EV Repairs,Kochi,9.968317107389877,76.2829748916917,81
Indali Mobile & EV Repairs,Kochi,9.958131561760988,76.24698551119768,163
Abdul Mobile & EV Repairs,Bengaluru,12.96732978004729,77.56074733967272,96
Reva Mobile & EV Repairs,Hyderabad,17.408470401206287,78.4468833236079,186
David Mobile & EV Repairs,Kochi,9.954835791363518,76.24702743956247,188
Omaja Mobile & EV Repairs,Chennai,13.098664086229078,80.30558819310951,178
Tejas Mobile & EV Repairs,Hyderabad,17.342382844037125,78.4970133420419,183
Chaitaly Mobile & EV Repairs,Hyderabad,17.40912002067611,78.47219632968438,87
Maya Mobile & EV Repairs,Hyderabad,17.392556425969712,78.50182821087843,131
Lopa Mobile & EV Repairs,Kochi,9.944583397173787,76.26967227847804,106
Kamya Mobile & EV Repairs,Chennai,13.111737641062556,80.27937044902511,164
Yug Mobile & EV Repairs,Kochi,9.979237189137319,76.23416768589667,122
Jhalak Mobile & EV Repairs,Bengaluru,12.993804046367293,77.59307460415765,38
Logan Mobile & EV Repairs,Bengaluru,12.942217171543549,77.58241642495585,77
Sanaya Mobile & EV Repairs,Bengaluru,13.000205897211865,77.62126553896121,79
Libni Mobile & EV Repairs,Chennai,13.085736533906388,80.23163448547373,92
Ijaya Mobile & EV Repairs,Chennai,13.102189948961204,80.31839116848397,195
Chaitanya Mobile & EV Repairs,Kochi,9.897446347891346,76.2760797805207,130
Radha Mobile & EV Repairs,Bengaluru,12.992635206609576,77.6356496761173,191
Nitesh Mobile & EV Repairs,Kochi,9.943062161924598,76.24903483219171,125
Guneet Mobile & EV Repairs,Kochi,9.917552669190263,76.30524843678914,160
Gagan Mobile & EV Repairs,Bengaluru,12.968942205740701,77.60642871938461,174
Varsha Mobile & EV Repairs,Kochi,9.920199338581074,76.23371827476986,30
Neelima Mobile & EV Repairs,Chennai,13.064559284773352,80.30264154997187,192
Frederick Mobile & EV Repairs,Hyderabad,17.342807960952015,78.47647911574526,32
Benjamin Mobile & EV Repairs,Hyderabad,17.353782865405236,78.52806347675276,133
Eta Mobile & EV Repairs,Hyderabad,17.415282569064498,78.4652199357824,87
Omisha Mobile & EV Repairs,Chennai,13.065482164071403,80.29780858271113,110
Pranit Mobile & EV Repairs,Hyderabad,17.405049144910837,78.53558496793224,183
Jatin Mobile & EV Repairs,Kochi,9.88467759685591,76.30067790492957,171
Leela Mobile & EV Repairs,Bengaluru,12.937205285421749,77.57461024647648,36
Kritika Mobile & EV Repairs,Chennai,13.080282031320957,80.22687992629902,42
Yuvraj Mobile & EV Repairs,Bengaluru,12.938328594804357,77.63038147476989,25
Zayyan Mobile & EV Repairs,Kochi,9.960618121384181,76.30510500466552,47
Gagan Mobile & EV Repairs,Hyderabad,17.35115499528647,78.50114065483986,102
Devika Mobile & EV Repairs,Kochi,9.929505497044218,76.3158348958281,169
Ishwar Mobile & EV Repairs,Hyderabad,17.387752448823363,78.53104548307267,21
Rudra Mobile & EV Repairs,Bengaluru,12.937689667533114,77.56107712196673,190
Nathan Mobile & EV Repairs,Kochi,9.948978308398457,76.3127583413683,90
Xiti Mobile & EV Repairs,Bengaluru,12.941036830943089,77.62568712547574,85
William Mobile & EV Repairs,Bengaluru,12.991079251556148,77.55197564578623,160
Chaaya Mobile & EV Repairs,Chennai,13.09699547170212,80.2331917510961,134
Urvi Mobile & EV Repairs,Bengaluru,12.951790363927854,77.63466616183753,49
Bhavini Mobile & EV Repairs,Chennai,13.1297813795987,80.31060758365079,129
Chatresh Mobile & EV Repairs,Hyderabad,17.420221634787964,78.47575454383774,60
Maanav Mobile & EV Repairs,Bengaluru,12.954650150102903,77.57167104917332,181
Darika Mobile & EV Repairs,Chennai,13.038170561316093,80.2465249473695,102
Kalpit Mobile & EV Repairs,Bengaluru,12.952409570691758,77.59328054048923,198
Saumya Mobile & EV Repairs,Bengaluru,12.979990372814948,77.55087581892911,93
Brinda Mobile & EV Repairs,Kochi,9.97871445836996,76.2672552163758,111
Balveer Mobile & EV Repairs,Bengaluru,13.019745864402852,77.56404520700889,57
George Mobile & EV Repairs,Bengaluru,12.924554445752046,77.58296417909416,29
Kamala Mobile & EV Repairs,Chennai,13.080697435026815,80.22857772780102,101
Rishi Mobile & EV Repairs,Bengaluru,12.954255680603644,77.58946483036719,24
Vinaya Mobile & EV Repairs,Bengaluru,12.937476452042636,77.57397348306597,177
Anmol Mobile & EV Repairs,Hyderabad,17.372827954167306,78.52749100838088,187
Gopal Mobile & EV Repairs,Hyderabad,17.407698578366862,78.4866525086258,113
Agastya Mobile & EV Repairs,Bengaluru,12.954535739720113,77.63639557581229,113
Jyoti Mobile & EV Repairs,Kochi,9.916246818535226,76.24196330807526,176
Manthan Mobile & EV Repairs,Bengaluru,13.004462660028123,77.60493540129086,64
Rachit Mobile & EV Repairs,Chennai,13.068783905005182,80.24153419528852,46
Amol Mobile & EV Repairs,Kochi,9.943639446915675,76.2557060287035,146
Prisha Mobile & EV Repairs,Chennai,13.10951216353586,80.23251206036674,57
Aadhya Mobile & EV Repairs,Bengaluru,12.983296185734241,77.59840020707584,108
Forum Mobile & EV Repairs,Kochi,9.96328127485732,76.30827788416309,197
Ubika Mobile & EV Repairs,Bengaluru,12.99981513066683,77.55828668704642,122
Tristan Mobile & EV Repairs,Bengaluru,12.996408825769137,77.56799108567763,182
Bishakha Mobile & EV Repairs,Kochi,9.97895012889955,76.23481264129167,28
Leela Mobile & EV Repairs,Bengaluru,12.985265607603402,77.56499415122585,155
Nitara Mobile & EV Repairs,Chennai,13.040503463376009,80.23875624283025,52
Ayush Mobile & EV Repairs,Bengaluru,12.994907478521853,77.57741369827802,125
Hema Mobile & EV Repairs,Bengaluru,13.011602541014154,77.56682146225597,84
Kamya Mobile & EV Repairs,Bengaluru,12.923382493597334,77.5484034798466,166
Bhavna Mobile & EV Repairs,Kochi,9.919944112604144,76.29216460317235,115
Priya Mobile & EV Repairs,Kochi,9.966533894406775,76.27184947219553,167
Rajeshri Mobile & EV Repairs,Chennai,13.04210186848793,80.25970750794257,192
Lipika Mobile & EV Repairs,Hyderabad,17.345279533049503,78.53088105738867,47
George Mobile & EV Repairs,Kochi,9.914955204248649,76.22797464210024,40
Ira Mobile & EV Repairs,Hyderabad,17.335158891566838,78.4859887940643,162
Azaan Mobile & EV Repairs,Chennai,13.115688174065582,80.31159681321921,137
Agastya Mobile & EV Repairs,Bengaluru,12.93579932497959,77.59188074868916,160
Dalbir Mobile & EV Repairs,Hyderabad,17.34573939405625,78.5113380459297,148
Max Mobile & EV Repairs,Hyderabad,17.374174467904826,78.46130371240142,65
Chanakya Mobile & EV Repairs,Bengaluru,12.960519347493118,77.55884197448279,180
Manan Mobile & EV Repairs,Kochi,9.97332703825989,76.25709482885101,32
Aadi Mobile & EV Repairs,Bengaluru,13.009753286051927,77.56586212254332,99
Eta Mobile & EV Repairs,Hyderabad,17.374829361605173,78.5098657669338,134
Gagan Mobile & EV Repairs,Bengaluru,12.949734641002573,77.56335401384226,40
Harrison Mobile & EV Repairs,Kochi,9.960492324698707,76.30914020882324,143
Damini Mobile & EV Repairs,Kochi,9.940259180882194,76.22238393738527,47
Fariq Mobile & EV Repairs,Hyderabad,17.43238235092882,78.49484082135005,157
Devika Mobile & EV Repairs,Hyderabad,17.350249326172904,78.44539191803139,115
Joshua Mobile & EV Repairs,Chennai,13.13171467947921,80.25895668143811,127
Lekha Mobile & EV Repairs,Hyderabad,17.341301315719118,78.51538907610973,43
Ridhi Mobile & EV Repairs,Hyderabad,17.386622149798622,78.45179522268675,114
Tanay Mobile & EV Repairs,Hyderabad,17.410152663104718,78.44913365889573,20
Ekbal Mobile & EV Repairs,Hyderabad,17.35651417085508,78.46307369523652,117
Chaitanya Mobile & EV Repairs,Hyderabad,17.410689210723618,78.51307013615649,197
Zarna Mobile & EV Repairs,Hyderabad,17.422384699708154,78.51385490199881,116
Chandani Mobile & EV Repairs,Bengaluru,12.986984766526431,77.59984676603757,95
Xalak Mobile & EV Repairs,Hyderabad,17.357518629464764,78.52065774837627,193
Orinder Mobile & EV Repairs,Kochi,9.921095272784513,76.22343986221999,32
Chanchal Mobile & EV Repairs,Chennai,13.041189479418486,80.26773088453122,159
Siddharth Mobile & EV Repairs,Bengaluru,12.937677811753298,77.60432444616117,108
Darsh Mobile & EV Repairs,Chennai,13.096037607868794,80.2642933846311,75
Sanya Mobile & EV Repairs,Chennai,13.12962627633875,80.28735203610488,173
Amruta Mobile & EV Repairs,Bengaluru,13.00333688532951,77.56397514148965,33
David Mobile & EV Repairs,Bengaluru,12.968402398522509,77.64096573853432,73
Gunbir Mobile & EV Repairs,Kochi,9.975354006594939,76.25666029468523,51
Chanchal Mobile & EV Repairs,Chennai,13.109566774411176,80.31019040225489,78
Aarini Mobile & EV Repairs,Chennai,13.088832697306556,80.3024883293161,199
Christopher Mobile & EV Repairs,Kochi,9.892100634505558,76.22299845821526,121
Vihaan Mobile & EV Repairs,Kochi,9.898133052751902,76.24114627806688,56
Christopher Mobile & EV Repairs,Chennai,13.09686472179342,80.27740732987621,35
Aarna Mobile & EV Repairs,Bengaluru,12.945877509335983,77.63262298976797,63
Yashasvi Mobile & EV Repairs,Chennai,13.059697763866485,80.2830099263615,183
Pallavi Mobile & EV Repairs,Chennai,13.10055729345042,80.31094446462508,99
Sanaya Mobile & EV Repairs,Chennai,13.03323086329593,80.31613355419732,136
Saumya Mobile & EV Repairs,Hyderabad,17.344358872897853,78.44792287596627,133
Warda Mobile & EV Repairs,Hyderabad,17.411450437025294,78.48807925491971,126
Ojas Mobile & EV Repairs,Kochi,9.901873915553614,76.31456611547888,79
Upkaar Mobile & EV Repairs,Chennai,13.096438596017531,80.28365968870897,92
Vrishti Mobile & EV Repairs,Hyderabad,17.353659283530376,78.50548094045158,67
Forum Mobile & EV Repairs,Chennai,13.056631487071103,80.28321662453959,143
Jairaj Mobile & EV Repairs,Chennai,13.10881675918618,80.24359856408479,108
Faqid Mobile & EV Repairs,Hyderabad,17.402668612601648,78.4538729454834,69
Gavin Mobile & EV Repairs,Chennai,13.10330867941081,80.31302397521533,61
Mohammed Mobile & EV Repairs,Kochi,9.899956460658139,76.28404641049225,20
Anita Mobile & EV Repairs,Hyderabad,17.354939500015004,78.46247268968683,120
Sara Mobile & EV Repairs,Bengaluru,12.926059143756623,77.56319755720082,197
Orinder Mobile & EV Repairs,Chennai,13.078463518875289,80.23868226456158,157
Om Mobile & EV Repairs,Hyderabad,17.35540142242942,78.4529941679243,90
Luke Mobile & EV Repairs,Bengaluru,12.94385467864733,77.5835191667116,36
Harini Mobile & EV Repairs,Bengaluru,13.02124939046299,77.62799484122203,190
Lakshmi Mobile & EV Repairs,Kochi,9.95916508109988,76.30921715284511,144
Abha Mobile & EV Repairs,Chennai,13.037673115089149,80.26818429367106,26
Xavier Mobile & EV Repairs,Chennai,13.08509314514614,80.26617105445276,46
Nitesh Mobile & EV Repairs,Hyderabad,17.358561211660476,78.46408335346288,142
Mitali Mobile & EV Repairs,Chennai,13.110535242287405,80.26310102872505,78
Urvashi Mobile & EV Repairs,Bengaluru,12.95138018548386,77.62114948662969,20
Gautami Mobile & EV Repairs,Chennai,13.11705387750726,80.29226264610732,151
Shaurya Mobile & EV Repairs,Hyderabad,17.33939687690294,78.46414626560194,122
Zayan Mobile & EV Repairs,Hyderabad,17.41181050607344,78.48318769247697,126
Chavvi Mobile & EV Repairs,Kochi,9.904882204893415,76.30321944781429,104
Advika Mobile & EV Repairs,Bengaluru,13.003846729409275,77.60316244786735,106
Nikita Mobile & EV Repairs,Kochi,9.926628738581831,76.2728387497607,72
Jyoti Mobile & EV Repairs,Hyderabad,17.383142725751703,78.5348992258995,182
Owen Mobile & EV Repairs,Kochi,9.973165373022063,76.29302958788773,77
Waida Mobile & EV Repairs,Chennai,13.038903778483618,80.26294233785339,128
Samar Mobile & EV Repairs,Bengaluru,12.929665941443549,77.62503476463215,113
Ranveer Mobile & EV Repairs,Hyderabad,17.359161543337432,78.4711881223953,126
Udant Mobile & EV Repairs,Chennai,13.11503525364523,80.30705006831838,57
Anirudh Mobile & EV Repairs,Hyderabad,17.387377078332268,78.47176612138749,184
Simon Mobile & EV Repairs,Hyderabad,17.395295901795585,78.45529296818718,69
Geetika Mobile & EV Repairs,Hyderabad,17.370987212902982,78.46445042058934,90
Adweta Mobile & EV Repairs,Bengaluru,13.003275673887908,77.6239561451842,91
Omaja Mobile & EV Repairs,Chennai,13.117687539778613,80.30955622256766,113
Ikshita Mobile & EV Repairs,Bengaluru,12.921630918353927,77.62492648108766,60
Anamika Mobile & EV Repairs,Bengaluru,12.994123315764101,77.62107595942075,145
Ganga Mobile & EV Repairs,Hyderabad,17.391486403999515,78.53405961189318,40
Bhavani Mobile & EV Repairs,Kochi,9.929784192557959,76.24249316718661,166
Faras Mobile & EV Repairs,Kochi,9.946231585024892,76.25016647003213,195
Advay Mobile & EV Repairs,Kochi,9.953345851676628,76.26458490600304,158
Krish Mobile & EV Repairs,Bengaluru,12.944099823360165,77.56524672571977,61
Harsh Mobile & EV Repairs,Chennai,13.120479249069847,80.25104787574331,75
Sai Mobile & EV Repairs,Hyderabad,17.335053390526106,78.48957145000294,185
Jonathan Mobile & EV Repairs,Chennai,13.08763163264834,80.24940603253344,42
Advik Mobile & EV Repairs,Bengaluru,12.925812239126232,77.59846800399214,42
Aarush Mobile & EV Repairs,Kochi,9.928333878149646,76.23833216145638,165
Nimrat Mobile & EV Repairs,Kochi,9.92462452979646,76.25590370067822,163
Yashvi Mobile & EV Repairs,Kochi,9.885704178295951,76.2351496701065,90
Bhanumati Mobile & EV Repairs,Hyderabad,17.349054976439948,78.47871235785156,148
Vaishnavi Mobile & EV Repairs,Chennai,13.108610906404765,80.30351555942465,163
Aadhya Mobile & EV Repairs,Kochi,9.929652635640222,76.31143909563458,170
Alexander Mobile & EV Repairs,Kochi,9.883769767243987,76.28037457311218,22
Aashi Mobile & EV Repairs,Chennai,13.036198002743916,80.29026095111524,81
Varenya Mobile & EV Repairs,Chennai,13.086779558917652,80.28653335757586,130
Tanish Mobile & EV Repairs,Kochi,9.918974171144802,76.26655089838346,158
Pahal Mobile & EV Repairs,Kochi,9.940548044055648,76.27188629264157,116
Peter Mobile & EV Repairs,Chennai,13.128175840501962,80.28363588186936,30
Vedant Mobile & EV Repairs,Kochi,9.947988960443038,76.30725658111866,126
Tanish Mobile & EV Repairs,Bengaluru,12.922168142999604,77.63743117834922,106
Ojas Mobile & EV Repairs,Bengaluru,12.949430335737492,77.6437890041395,71
Shivani Mobile & EV Repairs,Kochi,9.953552402358309,76.30353772583376,195
Ekantika Mobile & EV Repairs,Chennai,13.113945362407346,80.31482614447657,66
Devansh Mobile & EV Repairs,Bengaluru,12.99636995426578,77.62906934831646,192
Hiral Mobile & EV Repairs,Kochi,9.90511397232859,76.30731539712093,125
Wahab Mobile & EV Repairs,Kochi,9.88322890037656,76.29331901157303,21
Balendra Mobile & EV Repairs,Chennai,13.119677639760086,80.2698924409345,116
Hamsini Mobile & EV Repairs,Hyderabad,17.383665502428652,78.48068279991239,185
Aahana Mobile & EV Repairs,Chennai,13.061046378463445,80.29986107417093,93
Vritti Mobile & EV Repairs,Kochi,9.958587271167906,76.29027290053355,144
Aarini Mobile & EV Repairs,Bengaluru,12.953503470442104,77.59045888739247,20
William Mobile & EV Repairs,Chennai,13.106078480830236,80.26188623038311,108
Zarna Mobile & EV Repairs,Kochi,9.911493796130467,76.27066196457947,93
Umang Mobile & EV Repairs,Bengaluru,12.967310378101368,77.62258175199223,106
Vaishnavi Mobile & EV Repairs,Chennai,13.046214844659238,80.25293677972614,78
Hardik Mobile & EV Repairs,Chennai,13.060493714457865,80.31508763562562,60
Dakshesh Mobile & EV Repairs,Hyderabad,17.42718516832616,78.46895712964634,89
Saumya Mobile & EV Repairs,Kochi,9.895256318102785,76.29097602093533,47
Gauri Mobile & EV Repairs,Bengaluru,13.011987997708323,77.6391343810968,163
Damini Mobile & EV Repairs,Hyderabad,17.39782373833348,78.48843796052914,88
Upasna Mobile & EV Repairs,Chennai,13.067869135269172,80.23424982832705,128
Wriddhish Mobile & EV Repairs,Kochi,9.891025198940522,76.31323257634081,183
Sachi Mobile & EV Repairs,Hyderabad,17.38102077185922,78.48663276129585,141
Naksh Mobile & EV Repairs,Hyderabad,17.397230752582203,78.50215388166532,158
Lila Mobile & EV Repairs,Hyderabad,17.385874065133546,78.51375012868938,177
Libni Mobile & EV Repairs,Bengaluru,12.971137907604891,77.5685885061799,87
Rachit Mobile & EV Repairs,Chennai,13.04696724727521,80.25123047964071,33
Ekiya Mobile & EV Repairs,Kochi,9.887564574953851,76.28869907535115,37
Anmol Mobile & EV Repairs,Kochi,9.92604344201788,76.31415818197729,63
Zayan Mobile & EV Repairs,Hyderabad,17.41920451831567,78.46775911958636,114
Madhavi Mobile & EV Repairs,Bengaluru,12.995339448214024,77.57147057457128,117
Anay Mobile & EV Repairs,Chennai,13.079665728195392,80.25896583473005,55
Bhavna Mobile & EV Repairs,Kochi,9.911531345452724,76.27504013077062,66
Ethan Mobile & EV Repairs,Bengaluru,13.01012310822066,77.61243682189318,182
Ryan Mobile & EV Repairs,Kochi,9.959406349039972,76.21783850909962,131
Ekantika Mobile & EV Repairs,Kochi,9.973983387843514,76.26106984106762,97
Jeet Mobile & EV Repairs,Chennai,13.045628807860858,80.316323283024,141
Yadavi Mobile & EV Repairs,Hyderabad,17.369911905177187,78.49791052353451,71
Yamini Mobile & EV Repairs,Chennai,13.077336930578065,80.28982166110474,60
Harish Mobile & EV Repairs,Chennai,13.037596568572196,80.2256609202105,24
Libni Mobile & EV Repairs,Chennai,13.087642171544386,80.24279539868324,43
Jairaj Mobile & EV Repairs,Bengaluru,13.010269291417929,77.60518918779577,154
Yahvi Mobile & EV Repairs,Bengaluru,13.002594977426677,77.58754310884132,140
Vedant Mobile & EV Repairs,Kochi,9.920801019033773,76.29507606899303,127
Divya Mobile & EV Repairs,Hyderabad,17.38193581370306,78.45966847429976,20
Abha Mobile & EV Repairs,Kochi,9.954782604053534,76.2695875769718,24
Jeevika Mobile & EV Repairs,Kochi,9.962699827073063,76.2743174980746,31
Chavvi Mobile & EV Repairs,Kochi,9.93737794693847,76.25856806207673,64
Sneha Mobile & EV Repairs,Hyderabad,17.38506515957503,78.47993233036803,29
Waida Mobile & EV Repairs,Chennai,13.123313246368461,80.22721462142027,119
Jyoti Mobile & EV Repairs,Bengaluru,12.976986710722764,77.5863799802645,28
Zehaan Mobile & EV Repairs,Chennai,13.10211523197438,80.27613974984243,188
Lohit Mobile & EV Repairs,Bengaluru,13.009057092986824,77.61112695168315,51
Finn Mobile & EV Repairs,Bengaluru,13.012615980465368,77.59000428786537,90
Chaitanya Mobile & EV Repairs,Bengaluru,12.945678268238286,77.62497128101776,117
Chandresh Mobile & EV Repairs,Bengaluru,12.943055396239505,77.59363321470337,101
Yatin Mobile & EV Repairs,Hyderabad,17.409312366836527,78.43699750578787,22
Nikita Mobile & EV Repairs,Bengaluru,13.006119428182954,77.54537355266714,108
Frederick Mobile & EV Repairs,Chennai,13.038285224841623,80.27217951588482,192
Varenya Mobile & EV Repairs,Kochi,9.96416997961851,76.28125759662936,130
Balhaar Mobile & EV Repairs,Kochi,9.905398424983094,76.2218915532124,168
Ayushman Mobile & EV Repairs,Bengaluru,13.012721125408218,77.59608445433403,95
Upadhriti Mobile & EV Repairs,Kochi,9.892973683100644,76.2919638102175,189
Naksh Mobile & EV Repairs,Bengaluru,12.975128020311494,77.57299227807039,45
Neha Mobile & EV Repairs,Chennai,13.041732676092082,80.27613069151073,27
Vansha Mobile & EV Repairs,Bengaluru,13.012492739923323,77.62028425226865,23
Chakradev Mobile & EV Repairs,Hyderabad,17.335580218646168,78.5224301401177,86
Ati Mobile & EV Repairs,Bengaluru,12.927281058387345,77.59902884078902,181
Madhavi Mobile & EV Repairs,Bengaluru,12.983521181726623,77.59886839893629,171
Brijesh Mobile & EV Repairs,Bengaluru,12.945549818329503,77.5863520079934,109
Aahana Mobile & EV Repairs,Bengaluru,13.018487155809606,77.6285677059627,30
George Mobile & EV Repairs,Bengaluru,12.991761648902953,77.55959554386249,59
Gaurika Mobile & EV Repairs,Chennai,13.03431559883586,80.31929757823849,191
Anirudh Mobile & EV Repairs,Chennai,13.065034476336901,80.30628501158914,64
Lakshmi Mobile & EV Repairs,Chennai,13.03577407032768,80.26071198106041,103
Dhruv Mobile & EV Repairs,Chennai,13.07032155692283,80.23165414669569,135
Vasatika Mobile & EV Repairs,Hyderabad,17.37378946655015,78.47313398581686,60
Omaja Mobile & EV Repairs,Kochi,9.883779570391825,76.2996893371765,62
Jason Mobile & EV Repairs,Hyderabad,17.39837523837245,78.49419111620313,158
Yashodhara Mobile & EV Repairs,Bengaluru,12.976619338854809,77.57362941278176,142
Radhika Mobile & EV Repairs,Kochi,9.97472835225652,76.30695300110392,38
Chasmum Mobile & EV Repairs,Bengaluru,12.965724010883365,77.63047029959519,162
Chasmum Mobile & EV Repairs,Bengaluru,12.974441886919603,77.59461718305678,104
Warhi Mobile & EV Repairs,Hyderabad,17.382252196386073,78.51502726064257,142
Devika Mobile & EV Repairs,Chennai,13.080392903105906,80.26232611564738,23
Dipta Mobile & EV Repairs,Chennai,13.040566840917142,80.3137866142255,66
Geetika Mobile & EV Repairs,Hyderabad,17.425329652479377,78.45871688730938,112
Manan Mobile & EV Repairs,Chennai,13.040917439105883,80.27703409691127,116
Logan Mobile & EV Repairs,Bengaluru,12.94080584915118,77.6007758895038,55
Vihaan Mobile & EV Repairs,Bengaluru,13.003017765688568,77.5539045693958,143
Pallavi Mobile & EV Repairs,Kochi,9.955447070377232,76.29139290649366,87
Gautami Mobile & EV Repairs,Bengaluru,12.924125836237987,77.58114702408247,49
Shravya Mobile & EV Repairs,Hyderabad,17.41177709425179,78.4406582084456,46
Girish Mobile & EV Repairs,Hyderabad,17.35351298639715,78.48335537114144,183
Anusha Mobile & EV Repairs,Kochi,9.950786597510788,76.27106230767401,58
Nisha Mobile & EV Repairs,Chennai,13.048313528847528,80.29501830136022,78
Zayyan Mobile & EV Repairs,Hyderabad,17.421626819545402,78.53644894370476,98
Hiral Mobile & EV Repairs,Chennai,13.057077690915245,80.30928415103695,180
Yashodhara Mobile & EV Repairs,Hyderabad,17.36808085480939,78.52252027046617,164
Bhavani Mobile & EV Repairs,Hyderabad,17.34574569225816,78.47198933499016,197
Girik Mobile & EV Repairs,Kochi,9.93854283638954,76.28060412210249,43
Unnati Mobile & EV Repairs,Hyderabad,17.379325250612283,78.52393421040239,24
Ekaraj Mobile & EV Repairs,Hyderabad,17.335214358823283,78.45710233991704,58
Chandresh Mobile & EV Repairs,Kochi,9.881431957541016,76.27616152714418,61
Samarth Mobile & EV Repairs,Bengaluru,12.923149385655433,77.58862616355876,193
Barkha Mobile & EV Repairs,Hyderabad,17.35937876226062,78.44308962327341,183
Aarini Mobile & EV Repairs,Chennai,13.05895452415727,80.31443122331461,139
Alexander Mobile & EV Repairs,Hyderabad,17.41663133438524,78.53068503331015,129
Dominic Mobile & EV Repairs,Kochi,9.96039315258306,76.22423354836957,134
Ekantika Mobile & EV Repairs,Hyderabad,17.40753317123172,78.48293572398302,141
Bhanumati Mobile & EV Repairs,Chennai,13.106103159803789,80.26828370998012,33
Ira Mobile & EV Repairs,Bengaluru,13.00631115710284,77.58958641093226,137
Libni Mobile & EV Repairs,Hyderabad,17.348754383602152,78.4512291200045,74
Aradhana Mobile & EV Repairs,Chennai,13.070954854526395,80.31916274385544,82
Ansh Mobile & EV Repairs,Kochi,9.894686731442246,76.23483465731518,163
Gaurangi Mobile & EV Repairs,Hyderabad,17.36463702305146,78.51591854421783,194
Upkaar Mobile & EV Repairs,Kochi,9.934009537423709,76.23164732648591,153
Gavin Mobile & EV Repairs,Bengaluru,12.962047645688045,77.60412049190211,129
Barkha Mobile & EV Repairs,Hyderabad,17.39953832089296,78.50772921557322,118
Mugdha Mobile & EV Repairs,Chennai,13.101289729036232,80.31381270265706,136
Dakshesh Mobile & EV Repairs,Hyderabad,17.406780692328162,78.47420443358689,181
Meghana Mobile & EV Repairs,Kochi,9.978488649745815,76.24104293946633,86
Thomas Mobile & EV Repairs,Bengaluru,12.925855529206583,77.63761734505772,62
Bishakha Mobile & EV Repairs,Bengaluru,12.996969651268193,77.54975021157543,159
Avi Mobile & EV Repairs,Bengaluru,12.993756872949835,77.62953506023892,99
Gaurav Mobile & EV Repairs,Chennai,13.12486681400654,80.23757565170648,71
Rachana Mobile & EV Repairs,Kochi,9.918973840381053,76.27920002840148,71
Madhavi Mobile & EV Repairs,Bengaluru,12.927614957826691,77.54716251943553,184
Reva Mobile & EV Repairs,Bengaluru,12.972448483133713,77.62197215082728,155
Tanish Mobile & EV Repairs,Bengaluru,13.005289288453525,77.60314802465216,194
Mitesh Mobile & EV Repairs,Bengaluru,13.005293424368547,77.5495600603795,133
Advay Mobile & EV Repairs,Hyderabad,17.34032318547215,78.4418284821012,166
Rudra Mobile & EV Repairs,Chennai,13.090572108477875,80.26469989420734,33
Jyoti Mobile & EV Repairs,Bengaluru,12.98313836330287,77.59096061283012,154
Widisha Mobile & EV Repairs,Bengaluru,12.935890450185731,77.57620622261936,131
Barkha Mobile & EV Repairs,Kochi,9.947102550651126,76.25268577308579,141
Siya Mobile & EV Repairs,Hyderabad,17.34849647393188,78.4367241383805,171
Hamsini Mobile & EV Repairs,Hyderabad,17.384114259663583,78.45482695847588,165
Omya Mobile & EV Repairs,Bengaluru,12.96043282889848,77.57024060906923,164
Amol Mobile & EV Repairs,Chennai,13.110646919340288,80.26717440809102,175
Zaitra Mobile & EV Repairs,Chennai,13.106789853919539,80.2991870910542,171
Rayaan Mobile & EV Repairs,Hyderabad,17.382758160549564,78.49004316140424,93
Frado Mobile & EV Repairs,Chennai,13.12499540238857,80.23806788521452,141
Urishilla Mobile & EV Repairs,Chennai,13.075236474336954,80.25187619672637,31
Zehaan Mobile & EV Repairs,Hyderabad,17.43348963827909,78.44894450264593,146
Xalak Mobile & EV Repairs,Hyderabad,17.408122958510923,78.4872766251974,179
Madhavi Mobile & EV Repairs,Bengaluru,12.928397637099476,77.64352225546098,117
Madhav Mobile & EV Repairs,Kochi,9.929367449540434,76.272019977581,186
Hiral Mobile & EV Repairs,Hyderabad,17.397530242091122,78.50195327016773,185
Nathan Mobile & EV Repairs,Kochi,9.923557524103582,76.22468379247555,72
Dalbir Mobile & EV Repairs,Kochi,9.97537998312234,76.30302212270439,46
Vaishnavi Mobile & EV Repairs,Chennai,13.123994450635394,80.2540442014286,158
Sarthak Mobile & EV Repairs,Chennai,13.04371642438253,80.2281246421284,76
Gaurav Mobile & EV Repairs,Bengaluru,13.000333815582902,77.60898195649027,179
David Mobile & EV Repairs,Chennai,13.096991556467868,80.22996268071057,75
Frederick Mobile & EV Repairs,Kochi,9.932416296451555,76.25394833179199,59
Baghyawati Mobile & EV Repairs,Kochi,9.894073795700903,76.24616043067309,180
Ira Mobile & EV Repairs,Bengaluru,12.989974051708941,77.57114686104428,106
Vansha Mobile & EV Repairs,Kochi,9.951016282798005,76.30016828419183,149
Farhan Mobile & EV Repairs,Bengaluru,12.947771843836753,77.54477717039043,142
Dev Mobile & EV Repairs,Hyderabad,17.379343792648047,78.52191640719913,172
Brinda Mobile & EV Repairs,Chennai,13.11736145049902,80.27101437336967,145
Banjeet Mobile & EV Repairs,Chennai,13.054280512910877,80.3186318609485,88
Ethan Mobile & EV Repairs,Chennai,13.087706147642354,80.30256880331467,183
Anjali Mobile & EV Repairs,Hyderabad,17.394130480410443,78.46793978568412,127
Janaki Mobile & EV Repairs,Hyderabad,17.43193301160061,78.48055890288299,111
Tanveer Mobile & EV Repairs,Bengaluru,12.970592482959605,77.5782590593753,53
Hemani Mobile & EV Repairs,Bengaluru,12.938860197056398,77.61250144185102,28
William Mobile & EV Repairs,Bengaluru,13.004624612739281,77.57869099135713,155
Michael Mobile & EV Repairs,Bengaluru,12.96618036800251,77.60253282337378,64
Hritik Mobile & EV Repairs,Kochi,9.933136033147449,76.26161532718201,30
Onkar Mobile & EV Repairs,Kochi,9.93428784669561,76.27717897767678,173
Kamala Mobile & EV Repairs,Kochi,9.885569971828476,76.26863319311546,180
Ekta Mobile & EV Repairs,Bengaluru,12.926986126616422,77.57083598964121,191
Advika Mobile & EV Repairs,Chennai,13.126622795349906,80.29119071862026,115
Balhaar Mobile & EV Repairs,Chennai,13.05575558417209,80.22137080061502,74
Daksha Mobile & EV Repairs,Kochi,9.917701339980237,76.2313444137436,181
Shivani Mobile & EV Repairs,Chennai,13.081374198482376,80.23959198435783,140
Lakshmi Mobile & EV Repairs,Bengaluru,13.015128110101733,77.63927811793143,187
Kritika Mobile & EV Repairs,Hyderabad,17.400060462286902,78.47793805713499,180
Logan Mobile & EV Repairs,Hyderabad,17.37435093573201,78.43687397596861,28
Veer Mobile & EV Repairs,Hyderabad,17.39921417176148,78.48486580305412,128
Umang Mobile & EV Repairs,Kochi,9.895368563874804,76.27364382856062,99
Laksh Mobile & EV Repairs,Bengaluru,12.962258668965523,77.5635173007529,182
Bhanumati Mobile & EV Repairs,Kochi,9.958572450303912,76.31233326597409,62
Shivani Mobile & EV Repairs,Hyderabad,17.42276360405547,78.47421830492615,198
Ronith Mobile & EV Repairs,Kochi,9.957656176880327,76.24529702513277,59
Wriddhish Mobile & EV Repairs,Kochi,9.890818642223033,76.28217879216427,169
Utkarsh Mobile & EV Repairs,Kochi,9.931509532899362,76.31022992427391,27
Chanchal Mobile & EV Repairs,Chennai,13.10176873787988,80.2348821126528,159
Brijesh Mobile & EV Repairs,Hyderabad,17.360734205926196,78.47819975233976,111
Suhani Mobile & EV Repairs,Kochi,9.957137354629504,76.27242564651411,115
Megha Mobile & EV Repairs,Chennai,13.090492238353582,80.30718689886774,159
Omkaar Mobile & EV Repairs,Hyderabad,17.374038559077857,78.43761381450172,132
Janani Mobile & EV Repairs,Bengaluru,12.97605597156571,77.57044075840061,56
Upkaar Mobile & EV Repairs,Chennai,13.098382591339496,80.28100778924862,162
Gaurika Mobile & EV Repairs,Kochi,9.959984623669003,76.2399111119137,99
Megha Mobile & EV Repairs,Bengaluru,12.926759800175542,77.64218729279236,177
Vamakshi Mobile & EV Repairs,Hyderabad,17.419006817185267,78.51386861762586,181
Sathvik Mobile & EV Repairs,Bengaluru,12.981372293345474,77.55057289643295,23
Maanas Mobile & EV Repairs,Chennai,13.051703343175864,80.30746979831122,24
Nilima Mobile & EV Repairs,Bengaluru,12.957900840751469,77.56979283365627,94
Bhavani Mobile & EV Repairs,Kochi,9.886767166542729,76.28031827276556,45
Gavin Mobile & EV Repairs,Kochi,9.899491610028482,76.30238983794598,158
Oliver Mobile & EV Repairs,Chennai,13.048245887785592,80.30990224729409,172
Nathan Mobile & EV Repairs,Chennai,13.119337591068497,80.31847441553856,55
Yashoda Mobile & EV Repairs,Bengaluru,12.992209308037857,77.62985118490575,42
Gaurika Mobile & EV Repairs,Hyderabad,17.39825060517433,78.50297460733734,77
Ekapad Mobile & EV Repairs,Bengaluru,12.936987418882586,77.62359854201938,26
Nirja Mobile & EV Repairs,Bengaluru,12.96308153977392,77.63946965048585,168
Widisha Mobile & EV Repairs,Chennai,13.119883468965881,80.26033830916201,152
Quincy Mobile & EV Repairs,Chennai,13.10159564648947,80.2852941208268,70
Madhav Mobile & EV Repairs,Hyderabad,17.36419472300931,78.46668636112283,62
Mason Mobile & EV Repairs,Bengaluru,12.991618542740873,77.58701439988313,38
Pooja Mobile & EV Repairs,Kochi,9.961231822497188,76.30550353611285,38
Theodore Mobile & EV Repairs,Hyderabad,17.404474271427258,78.49870254920583,82
Shaurya Mobile & EV Repairs,Kochi,9.889474036854732,76.26933151229596,42
Imaran Mobile & EV Repairs,Kochi,9.94915820862788,76.26306671799433,47
Madhav Mobile & EV Repairs,Hyderabad,17.342126923731925,78.50453410237941,110
Anthony Mobile & EV Repairs,Kochi,9.922652353783015,76.28741260620113,87
Hamsini Mobile & EV Repairs,Chennai,13.110486347502443,80.31970946737039,38
Pranav Mobile & EV Repairs,Chennai,13.089050898542073,80.22724604400784,148
Kai Mobile & EV Repairs,Kochi,9.91108244947372,76.27458650155545,86
Siya Mobile & EV Repairs,Bengaluru,12.948228382765008,77.63667117413715,162
Yahvi Mobile & EV Repairs,Chennai,13.045042674255662,80.28052130773825,147
Pahal Mobile & EV Repairs,Hyderabad,17.354898235944418,78.46245060630463,58
Patrick Mobile & EV Repairs,Kochi,9.895993880549653,76.27316564838542,53
Indali Mobile & EV Repairs,Hyderabad,17.362884717817394,78.52537382162497,63
Finn Mobile & EV Repairs,Chennai,13.120583606623384,80.23136763739035,117
Netra Mobile & EV Repairs,Chennai,13.104352491051339,80.25629074490402,24
Abhiram Mobile & EV Repairs,Kochi,9.959147478902874,76.21779319042402,86
Aarnav Mobile & EV Repairs,Bengaluru,12.957653404802015,77.6274123009334,173
Advaith Mobile & EV Repairs,Bengaluru,13.014435743670314,77.56642662474933,190
Yug Mobile & EV Repairs,Hyderabad,17.360362525465074,78.51599906859994,189
Manthan Mobile & EV Repairs,Hyderabad,17.35023240956784,78.50000860448911,39
Ekbal Mobile & EV Repairs,Kochi,9.932047685595146,76.26771899676552,200
Gavin Mobile & EV Repairs,Kochi,9.961784061471771,76.25593368026377,27
Nathaniel Mobile & EV Repairs,Hyderabad,17.386271765315175,78.45152849865353,74
Udyati Mobile & EV Repairs,Hyderabad,17.43468020134318,78.4970708935542,115
Bimala Mobile & EV Repairs,Chennai,13.068575547470608,80.30547345453516,196
Samaksh Mobile & EV Repairs,Hyderabad,17.36103199773408,78.44061529619508,149
Timothy Mobile & EV Repairs,Bengaluru,12.95891791375549,77.58173681951675,126
Warjas Mobile & EV Repairs,Hyderabad,17.355340754988923,78.44355552953617,56
Madhav Mobile & EV Repairs,Chennai,13.051186023202924,80.27983738163923,67
Rachana Mobile & EV Repairs,Kochi,9.96783363231401,76.27676272941541,116
Saumya Mobile & EV Repairs,Kochi,9.882214394491685,76.27025516867262,104
Vasudha Mobile & EV Repairs,Bengaluru,13.010785338870328,77.63650531866837,86
Fariq Mobile & EV Repairs,Kochi,9.90936994156136,76.2946889492087,116
Jackson Mobile & EV Repairs,Hyderabad,17.38912317673339,78.45987693420007,92
Manbir Mobile & EV Repairs,Bengaluru,12.942044380084445,77.62933809366612,200
Jagat Mobile & EV Repairs,Bengaluru,12.978986806232896,77.6397017897665,87
Prisha Mobile & EV Repairs,Kochi,9.939624333838683,76.24282620318021,72
Shivansh Mobile & EV Repairs,Chennai,13.054908916834492,80.30085974036885,51
Laksh Mobile & EV Repairs,Hyderabad,17.378555849422845,78.46395976215844,61
Rudra Mobile & EV Repairs,Hyderabad,17.389917050023882,78.52320151070357,150
Aarav Mobile & EV Repairs,Chennai,13.114659343819117,80.30132405521974,56
Charita Mobile & EV Repairs,Hyderabad,17.40860926212668,78.5307155964709,187
Avni Mobile & EV Repairs,Kochi,9.913570860123547,76.28793856685728,53
Gaurav Mobile & EV Repairs,Chennai,13.103449839632855,80.29144968986225,197
Nachiket Mobile & EV Repairs,Kochi,9.922119257311627,76.29288158267124,158
Jason Mobile & EV Repairs,Kochi,9.915200015100007,76.27350516432567,77
Harish Mobile & EV Repairs,Hyderabad,17.408749637407414,78.51067271840984,89
Jai Mobile & EV Repairs,Bengaluru,12.981592301950835,77.55501017830093,51
Radhika Mobile & EV Repairs,Hyderabad,17.402544304731936,78.47951286111908,61
Advaith Mobile & EV Repairs,Hyderabad,17.409253294581767,78.50462383404499,181
Rajata Mobile & EV Repairs,Bengaluru,12.957950397303968,77.56392545485005,93
Netra Mobile & EV Repairs,Hyderabad,17.37811184191561,78.48193494918742,98
Nakul Mobile & EV Repairs,Bengaluru,12.93277922534845,77.59647533490595,198
Dhriti Mobile & EV Repairs,Hyderabad,17.406477596415776,78.48683744671173,166
Tanish Mobile & EV Repairs,Hyderabad,17.42495523762636,78.5182498546352,74
Riya Mobile & EV Repairs,Bengaluru,12.938305784684394,77.54760007962209,145
Yuvraj Mobile & EV Repairs,Chennai,13.072790506858302,80.28229706086303,26
Urishilla Mobile & EV Repairs,Hyderabad,17.404561198473676,78.5231685005889,144
Advay Mobile & EV Repairs,Kochi,9.925195837089623,76.27704141856499,77
Warhi Mobile & EV Repairs,Hyderabad,17.413256611397767,78.51258170390777,48
Jacob Mobile & EV Repairs,Bengaluru,12.971909001290744,77.55729397363503,129
Anvi Mobile & EV Repairs,Bengaluru,13.016087048149062,77.57663734614091,70
Aahana Mobile & EV Repairs,Chennai,13.107252880715569,80.26894073736204,72
Radhika Mobile & EV Repairs,Hyderabad,17.355384102906847,78.46681592147829,105
Madhavi Mobile & EV Repairs,Kochi,9.888107229298848,76.31285773512592,176
Aachal Mobile & EV Repairs,Kochi,9.977950875993718,76.27461250132946,95
Zilmil Mobile & EV Repairs,Kochi,9.889100455847506,76.26857932211884,68
Ishanvi Mobile & EV Repairs,Kochi,9.970435294811598,76.22956605744648,157
Simon Mobile & EV Repairs,Kochi,9.936498174759473,76.29561411197935,69
Rehaan Mobile & EV Repairs,Bengaluru,12.976183057643373,77.54693311787666,144
Upma Mobile & EV Repairs,Bengaluru,12.934473302359109,77.64131986372853,63
Mohini Mobile & EV Repairs,Hyderabad,17.416960287020892,78.51754108526055,189
Ayush Mobile & EV Repairs,Hyderabad,17.341061590421738,78.49136763202915,157
Suhani Mobile & EV Repairs,Bengaluru,13.017162886315623,77.59465831966624,29
Chanakya Mobile & EV Repairs,Kochi,9.965936111169652,76.29183871324815,25
Saanvi Mobile & EV Repairs,Hyderabad,17.388195909819405,78.45464965430124,82
Bhavika Mobile & EV Repairs,Chennai,13.109105845235469,80.3172587149685,110
Vasatika Mobile & EV Repairs,Hyderabad,17.401955782364038,78.44817625939032,136
Idika Mobile & EV Repairs,Bengaluru,13.007376666926419,77.60003082540206,75
Geetika Mobile & EV Repairs,Bengaluru,12.96262527302757,77.59913347411593,53
Eshana Mobile & EV Repairs,Chennai,13.051327337336636,80.24418684701845,28
Bhavani Mobile & EV Repairs,Kochi,9.975689136304826,76.25546009331251,113
Imaran Mobile & EV Repairs,Hyderabad,17.415007868285308,78.51917536434973,112
Hredhaan Mobile & EV Repairs,Chennai,13.06769310504472,80.27966632564687,34
Warjas Mobile & EV Repairs,Hyderabad,17.389507991153348,78.46058257378277,193
Dalaja Mobile & EV Repairs,Bengaluru,12.991672873833524,77.6348183701003,145
Anamika Mobile & EV Repairs,Hyderabad,17.398889552236582,78.47231022528297,159
Rajata Mobile & EV Repairs,Kochi,9.920393038086136,76.25026374854133,155
Nimrat Mobile & EV Repairs,Hyderabad,17.414663073057078,78.51322674734975,148
Arjun Mobile & EV Repairs,Bengaluru,12.977019948941589,77.54700892282783,77
Rudra Mobile & EV Repairs,Hyderabad,17.375334542126584,78.5232403491723,102
Isaiah Mobile & EV Repairs,Kochi,9.913569782297863,76.31085463700478,165
Krish Mobile & EV Repairs,Kochi,9.950134368515993,76.21904953826763,184
Om Mobile & EV Repairs,Chennai,13.080248681339492,80.31511816088843,159
Yashica Mobile & EV Repairs,Bengaluru,12.929977490905728,77.62608174370493,117
Alka Mobile & EV Repairs,Hyderabad,17.389026541753587,78.48158798826395,140
Brinda Mobile & EV Repairs,Chennai,13.096329451291565,80.24133171060942,134
Nathan Mobile & EV Repairs,Hyderabad,17.35920781514897,78.51361254235506,195
Michael Mobile & EV Repairs,Hyderabad,17.34638233584804,78.52574818253218,154
Darika Mobile & EV Repairs,Chennai,13.040997831577075,80.29158012153631,60
Triveni Mobile & EV Repairs,Kochi,9.974849512635007,76.28118461158428,195
Aarna Mobile & EV Repairs,Hyderabad,17.417349159914963,78.47711240310389,38
Ishwar Mobile & EV Repairs,Chennai,13.109477702599142,80.26780518735472,36
Unnati Mobile & EV Repairs,Kochi,9.902032200687927,76.2973444761062,22
Bhavna Mobile & EV Repairs,Hyderabad,17.37720366724165,78.50300926613599,140
Jairaj Mobile & EV Repairs,Chennai,13.096494614806959,80.23374929389172,124
Priya Mobile & EV Repairs,Hyderabad,17.41942855390903,78.45496923737142,29
Jhalak Mobile & EV Repairs,Kochi,9.934939068382105,76.22168320747481,72
Netra Mobile & EV Repairs,Hyderabad,17.361780091996646,78.47282964063712,135
Rayaan Mobile & EV Repairs,Chennai,13.107593341928968,80.30052429018096,127
Garima Mobile & EV Repairs,Kochi,9.953820526467998,76.22799820435608,167
Alka Mobile & EV Repairs,Kochi,9.89172965234333,76.28803561710555,31
Yatin Mobile & EV Repairs,Chennai,13.036886163992515,80.3195244301843,181
Vedika Mobile & EV Repairs,Chennai,13.10582207595297,80.29474918983443,84
Harshil Mobile & EV Repairs,Hyderabad,17.40246288810235,78.46260101466787,71
Ekantika Mobile & EV Repairs,Hyderabad,17.393018156252143,78.48261092378793,31
Yadavi Mobile & EV Repairs,Bengaluru,12.962178617120546,77.57475921342713,99
Megha Mobile & EV Repairs,Chennai,13.11482054680948,80.2919963933822,91
Jacob Mobile & EV Repairs,Bengaluru,12.96884881617883,77.60446307299581,74
Nachiket Mobile & EV Repairs,Hyderabad,17.338977794659726,78.52968977186924,145
Yasti Mobile & EV Repairs,Chennai,13.052628143718787,80.2861342364194,120
Abhiram Mobile & EV Repairs,Hyderabad,17.361932354301,78.53320212774241,200
Ekapad Mobile & EV Repairs,Kochi,9.919093338624737,76.22324523009387,133
Falan Mobile & EV Repairs,Kochi,9.883286483602943,76.28623286070318,123
Sachi Mobile & EV Repairs,Bengaluru,12.966748713923387,77.57474694773117,159
Ekapad Mobile & EV Repairs,Chennai,13.117570591763032,80.26549801539342,120
Lohit Mobile & EV Repairs,Kochi,9.888509376782014,76.25865699280607,45
Udarsh Mobile & EV Repairs,Kochi,9.940587711379559,76.22248120850972,197
Falan Mobile & EV Repairs,Hyderabad,17.366898945227607,78.47468027355853,77
William Mobile & EV Repairs,Hyderabad,17.346688066832154,78.52223346557341,80
Hiral Mobile & EV Repairs,Chennai,13.117872228078568,80.31166750571067,124
Ayaan Mobile & EV Repairs,Bengaluru,12.988948476789199,77.61080522363652,149
Banjeet Mobile & EV Repairs,Hyderabad,17.40783580260986,78.4939847360785,42
Sudiksha Mobile & EV Repairs,Kochi,9.91922938473851,76.31592681308105,118
Zarna Mobile & EV Repairs,Hyderabad,17.4320016795312,78.52628596522807,103
Abdul Mobile & EV Repairs,Chennai,13.062854287369278,80.2215229571266,42
Yuvraj Mobile & EV Repairs,Bengaluru,13.001427011592233,77.566922960655,153
Falguni Mobile & EV Repairs,Chennai,13.067990214055952,80.2680366535147,110
Aadhya Mobile & EV Repairs,Kochi,9.932523526886037,76.28929040857162,128
Nikita Mobile & EV Repairs,Kochi,9.894479814081432,76.21881815367696,131
Harshil Mobile & EV Repairs,Kochi,9.96992014601093,76.24430324086197,183
Anita Mobile & EV Repairs,Bengaluru,13.003055506898825,77.60831021277677,77
Rushil Mobile & EV Repairs,Chennai,13.122509951384515,80.26797157971757,159
Hema Mobile & EV Repairs,Bengaluru,12.990480717822804,77.63292035742008,120
Indira Mobile & EV Repairs,Hyderabad,17.4145926963715,78.51491825180756,50
Vedant Mobile & EV Repairs,Chennai,13.126858985284834,80.23736779091946,198
Ansh Mobile & EV Repairs,Kochi,9.881891946851944,76.27079772068397,122
Eshana Mobile & EV Repairs,Kochi,9.881411269967181,76.2342895787818,172
Vasudha Mobile & EV Repairs,Bengaluru,13.002895392902662,77.55876061608446,49
Zashil Mobile & EV Repairs,Chennai,13.104428114798175,80.26520116057792,158
Nakul Mobile & EV Repairs,Kochi,9.884555464998302,76.3043109191702,188
Bhavini Mobile & EV Repairs,Chennai,13.116679665970057,80.28472600606248,77
Meghana Mobile & EV Repairs,Hyderabad,17.33776077849094,78.48778011731649,160
Jeremiah Mobile & EV Repairs,Bengaluru,12.96276241965078,77.56514719603979,63
Kashvi Mobile & EV Repairs,Kochi,9.922080682924738,76.27438717191079,155
Kabir Mobile & EV Repairs,Kochi,9.95813456616053,76.28321153723584,119
Bhavika Mobile & EV Repairs,Kochi,9.898103728905413,76.25461958121633,125
Sara Mobile & EV Repairs,Kochi,9.981125634342812,76.27281284790679,34
Wahab Mobile & EV Repairs,Chennai,13.08340180639318,80.2811785977875,34
Xalak Mobile & EV Repairs,Hyderabad,17.402052870644443,78.53502907076867,63
Siya Mobile & EV Repairs,Hyderabad,17.39517948660589,78.44270788376753,124
Januja Mobile & EV Repairs,Bengaluru,12.930982450417577,77.64096970984305,118
Laban Mobile & EV Repairs,Kochi,9.88333335044522,76.27776448335698,64
Vansha Mobile & EV Repairs,Chennai,13.13210514317313,80.24429597981623,137
Eiravati Mobile & EV Repairs,Kochi,9.973552083110693,76.30386128470656,189
Praneel Mobile & EV Repairs,Kochi,9.979509689803185,76.24152358958231,200
Vamakshi Mobile & EV Repairs,Bengaluru,12.964412409851988,77.54741634395565,94
Owen Mobile & EV Repairs,Chennai,13.034893780625433,80.24156065464742,107
Abhiram Mobile & EV Repairs,Chennai,13.049484340945124,80.27017084359001,172
Faras Mobile & EV Repairs,Chennai,13.107358612882349,80.3002016276955,147
Ayaan Mobile & EV Repairs,Bengaluru,12.922737111194836,77.55836072719408,72
Upadhriti Mobile & EV Repairs,Hyderabad,17.428342773309126,78.45661042548663,90
Hemani Mobile & EV Repairs,Hyderabad,17.381243578024176,78.46352163865399,45
Vinaya Mobile & EV Repairs,Hyderabad,17.357287923390817,78.46027030700033,27
Ekantika Mobile & EV Repairs,Chennai,13.114766671105196,80.25184203670524,133
Aadi Mobile & EV Repairs,Hyderabad,17.346955966488938,78.51646209522845,94
Lajita Mobile & EV Repairs,Chennai,13.088537767278243,80.26445985104512,61
Gautami Mobile & EV Repairs,Kochi,9.965208511051301,76.21857922571277,60
Madhavi Mobile & EV Repairs,Chennai,13.114128613202821,80.22693489377588,188
Xalak Mobile & EV Repairs,Kochi,9.967368777174135,76.2511320237902,171
Yashodhara Mobile & EV Repairs,Hyderabad,17.368897467840736,78.47220200291771,158
Qadim Mobile & EV Repairs,Kochi,9.896106627737828,76.24166241166306,131
Sarthak Mobile & EV Repairs,Chennai,13.075943892154344,80.31881596162145,111
Harish Mobile & EV Repairs,Kochi,9.88373534804543,76.27300419999253,59
Darpan Mobile & EV Repairs,Kochi,9.899350515829711,76.22036087212375,52
Urmi Mobile & EV Repairs,Chennai,13.034527917266994,80.23490437551546,142
Anusha Mobile & EV Repairs,Chennai,13.079140110711721,80.31602973582801,66
Sai Mobile & EV Repairs,Chennai,13.058255922032874,80.23001589956475,20
Gautami Mobile & EV Repairs,Bengaluru,12.939538367882907,77.5699322406416,97
Oeshi Mobile & EV Repairs,Bengaluru,12.97117563772335,77.62682717091064,97
Urishilla Mobile & EV Repairs,Chennai,13.126554561213542,80.25495721736982,198
Agastya Mobile & EV Repairs,Hyderabad,17.40942643598324,78.43883066180776,147
Jalsa Mobile & EV Repairs,Hyderabad,17.360605125409872,78.53297444723201,105
Isaiah Mobile & EV Repairs,Bengaluru,12.99862277270981,77.5595151700162,112
Warda Mobile & EV Repairs,Chennai,13.079785547957341,80.28620593026125,197
Ganga Mobile & EV Repairs,Hyderabad,17.348599785663804,78.5327254690053,127
Amruta Mobile & EV Repairs,Chennai,13.059381919497316,80.23845043661632,151
Ekiya Mobile & EV Repairs,Hyderabad,17.376193361742786,78.4374917370302,35
Ansh Mobile & EV Repairs,Chennai,13.09397603298477,80.27566244908508,50
Fitan Mobile & EV Repairs,Chennai,13.103673222872061,80.30549072847005,162
Tanish Mobile & EV Repairs,Hyderabad,17.338715785938504,78.43823634448354,66
Ekantika Mobile & EV Repairs,Hyderabad,17.385033472238167,78.51329803583161,50
Faqid Mobile & EV Repairs,Chennai,13.130945515529973,80.28658303175543,42
Lavanya Mobile & EV Repairs,Bengaluru,12.996313134444861,77.63940930112639,174
Janaki Mobile & EV Repairs,Kochi,9.93657336992528,76.28506834856456,66
Bhavini Mobile & EV Repairs,Bengaluru,12.934148654665972,77.60190602551809,192
Chandani Mobile & EV Repairs,Bengaluru,12.926816263986298,77.56024184759575,67
Falak Mobile & EV Repairs,Bengaluru,12.925084688690678,77.5452434249198,116
Darika Mobile & EV Repairs,Chennai,13.113811297253852,80.23723176224755,97
Chasmum Mobile & EV Repairs,Chennai,13.127362244278686,80.23166852620686,128
Charles Mobile & EV Repairs,Kochi,9.918033002610645,76.227237688605,43
Indrajit Mobile & EV Repairs,Bengaluru,12.921990554072655,77.60612706189637,80
Wyatt Mobile & EV Repairs,Chennai,13.115779846021608,80.29276175309687,87
Samarth Mobile & EV Repairs,Hyderabad,17.337463112638808,78.52207172110361,119
Chaman Mobile & EV Repairs,Bengaluru,12.953727395102916,77.58376310237237,63
Vedika Mobile & EV Repairs,Kochi,9.945771582459349,76.23598059192851,33
Jai Mobile & EV Repairs,Bengaluru,12.941705475686222,77.62746425475271,119
Vedant Mobile & EV Repairs,Kochi,9.9418058963819,76.26573508155666,168
Ijaya Mobile & EV Repairs,Bengaluru,12.953274323857888,77.62190060930592,95
Zilmil Mobile & EV Repairs,Kochi,9.912243833294022,76.25561895644334,163
Falan Mobile & EV Repairs,Bengaluru,12.97819941816806,77.54726945232223,157
Yatin Mobile & EV Repairs,Kochi,9.911018125200421,76.27273136972897,164
Radhika Mobile & EV Repairs,Kochi,9.899667520681918,76.26130208207165,153
Maya Mobile & EV Repairs,Chennai,13.12514649718877,80.30386916661257,172
Hemal Mobile & EV Repairs,Chennai,13.12037550903931,80.29500595239227,82
Kashish Mobile & EV Repairs,Chennai,13.105771102140338,80.22145969063358,77
Jonathan Mobile & EV Repairs,Kochi,9.921245604702671,76.24514069794995,104
Wakeeta Mobile & EV Repairs,Hyderabad,17.393751927986006,78.48951504352237,184
Darika Mobile & EV Repairs,Bengaluru,12.988976345893724,77.55249272612431,101
Meera Mobile & EV Repairs,Kochi,9.943519127948518,76.29201805945068,163
Vamakshi Mobile & EV Repairs,Kochi,9.907427696971785,76.24514874838181,22
Isaiah Mobile & EV Repairs,Bengaluru,12.987391233094716,77.59988315354174,96
Samar Mobile & EV Repairs,Hyderabad,17.422960272737058,78.49527049441402,50
Dev Mobile & EV Repairs,Chennai,13.08597436401246,80.26039632453225,196
Urmi Mobile & EV Repairs,Bengaluru,12.996617974568508,77.56938604986684,50
Aarav Mobile & EV Repairs,Bengaluru,12.952622524822905,77.563715946706,93
Xalak Mobile & EV Repairs,Chennai,13.095169241453506,80.23787462752394,101
Bina Mobile & EV Repairs,Bengaluru,13.010403451121256,77.60716475557388,138
Brinda Mobile & EV Repairs,Hyderabad,17.408705337923497,78.52510243837104,54
Gautami Mobile & EV Repairs,Kochi,9.902376387949499,76.286487509275,85
Turvi Mobile & EV Repairs,Kochi,9.901376639776378,76.24682241390126,67
Dominic Mobile & EV Repairs,Bengaluru,12.984911026884328,77.61006374896729,73
Warjas Mobile & EV Repairs,Chennai,13.054096377924015,80.26085968407821,175
Abhimanyu Mobile & EV Repairs,Bengaluru,12.998441932272042,77.60566335656392,200
Ekavir Mobile & EV Repairs,Bengaluru,12.96857381237248,77.6436798154102,174
Omkaar Mobile & EV Repairs,Chennai,13.050195379177715,80.25813811440024,68
Vasudha Mobile & EV Repairs,Bengaluru,13.008417553446138,77.56733652165381,39
Ishani Mobile & EV Repairs,Bengaluru,12.931250717321655,77.5766873081934,147
Azad Mobile & EV Repairs,Bengaluru,13.004644936867868,77.56015963567299,30
Aadhya Mobile & EV Repairs,Bengaluru,12.990329748059176,77.5964406469477,101
Fariq Mobile & EV Repairs,Hyderabad,17.37748162288079,78.45525813166681,184
Ubika Mobile & EV Repairs,Chennai,13.090803067002025,80.31910408408571,59
Dalaja Mobile & EV Repairs,Hyderabad,17.347053736009553,78.53392576986111,187
Aashi Mobile & EV Repairs,Chennai,13.105291879914832,80.23004205332582,182
Kai Mobile & EV Repairs,Hyderabad,17.382965309119818,78.45606520753807,21
Imaran Mobile & EV Repairs,Bengaluru,12.943505579818071,77.62574859675613,141
Triya Mobile & EV Repairs,Kochi,9.890178957969937,76.22528218714817,23
Maanas Mobile & EV Repairs,Hyderabad,17.36397875647166,78.43675661638588,149
Ayaan Mobile & EV Repairs,Bengaluru,12.981004588991576,77.61076213934335,88
Shivansh Mobile & EV Repairs,Kochi,9.971433762091953,76.27297528759877,98
Lipika Mobile & EV Repairs,Bengaluru,12.954344305404751,77.6136762039972,177
Baghyawati Mobile & EV Repairs,Hyderabad,17.428599378115948,78.50601120856057,95
Yachana Mobile & EV Repairs,Kochi,9.94445720745018,76.25907207493078,173
Chaman Mobile & EV Repairs,Chennai,13.09664112352933,80.2363229576463,119
Amruta Mobile & EV Repairs,Hyderabad,17.424050961817542,78.52462725267486,96
Manthan Mobile & EV Repairs,Hyderabad,17.366898830602487,78.43711998802362,171
Ojasvi Mobile & EV Repairs,Bengaluru,12.941495012967742,77.63149853496839,124
Indira Mobile & EV Repairs,Hyderabad,17.42132674099628,78.49522738022317,92
Peter Mobile & EV Repairs,Chennai,13.058060013645303,80.31302317581483,75
Avni Mobile & EV Repairs,Bengaluru,13.007713832860185,77.59350133827844,135
Libni Mobile & EV Repairs,Hyderabad,17.385037783927167,78.44039514443308,122
Simon Mobile & EV Repairs,Hyderabad,17.355354996869952,78.4854274690663,188
Tarak Mobile & EV Repairs,Chennai,13.129151424929244,80.31599057714598,196
Ethan Mobile & EV Repairs,Chennai,13.113346942770919,80.29551142261732,21
Eta Mobile & EV Repairs,Bengaluru,12.934565338486223,77.57868994337548,77
Veda Mobile & EV Repairs,Kochi,9.905381873409288,76.23257814451217,122
Samarth Mobile & EV Repairs,Chennai,13.08472971312182,80.23701666044114,103
Jasmit Mobile & EV Repairs,Hyderabad,17.34052551586688,78.46874396577654,142
Kiaan Mobile & EV Repairs,Chennai,13.13065098867682,80.25920399766152,87
Sathvik Mobile & EV Repairs,Bengaluru,12.964684175977881,77.63739806498872,191
Advaith Mobile & EV Repairs,Hyderabad,17.416681468817693,78.48682103802396,166
Ojas Mobile & EV Repairs,Bengaluru,12.991252008667466,77.56732921366257,26
Onveer Mobile & EV Repairs,Kochi,9.897159131912167,76.23087721888828,159
Oni Mobile & EV Repairs,Bengaluru,13.004076611086177,77.58616149806561,146
Siya Mobile & EV Repairs,Bengaluru,12.964818610010415,77.60501676249368,39
Sanaya Mobile & EV Repairs,Kochi,9.912764573001036,76.23543106994758,23
Mason Mobile & EV Repairs,Chennai,13.091104339926572,80.27459642424665,32
Edhitha Mobile & EV Repairs,Bengaluru,12.963206222209127,77.58736431572018,103
Bhavini Mobile & EV Repairs,Bengaluru,12.973882767454969,77.60190673937925,175
Mohammed Mobile & EV Repairs,Bengaluru,13.004722460215108,77.57667974892045,146
Aarush Mobile & EV Repairs,Bengaluru,13.020068567505936,77.61761856356551,72
Arya Mobile & EV Repairs,Bengaluru,12.968085531243792,77.60126561860004,105
Saksham Mobile & EV Repairs,Hyderabad,17.39107611173654,78.53157890396469,54
Abeer Mobile & EV Repairs,Hyderabad,17.419759690581387,78.53047689676329,30
Warjas Mobile & EV Repairs,Hyderabad,17.421498062028647,78.5024297460709,174
Amaira Mobile & EV Repairs,Chennai,13.07870128863826,80.30650899856893,153
Rajata Mobile & EV Repairs,Kochi,9.918580905909893,76.24737719646048,20
Yashoda Mobile & EV Repairs,Chennai,13.0874512576261,80.28232070010962,72
Yuvraj Mobile & EV Repairs,Kochi,9.91294025634359,76.30953040934331,35
Vasatika Mobile & EV Repairs,Kochi,9.967915690974747,76.27631424452153,38
Yashodhara Mobile & EV Repairs,Chennai,13.039787018917925,80.22289803781855,172
Balvan Mobile & EV Repairs,Bengaluru,12.93334403172168,77.60478315307316,31
Keya Mobile & EV Repairs,Bengaluru,12.93186257332243,77.63814993664616,69
Yutika Mobile & EV Repairs,Kochi,9.97253264633726,76.29090034957449,37
Bhavya Mobile & EV Repairs,Bengaluru,12.985477635470037,77.55576472581015,87
Yashodhara Mobile & EV Repairs,Kochi,9.913175011114523,76.2756280251608,90
Netra Mobile & EV Repairs,Bengaluru,12.9993819199786,77.60737261409008,30
Barkha Mobile & EV Repairs,Chennai,13.098998804355192,80.24688985167332,140
Bachittar Mobile & EV Repairs,Kochi,9.892629085192146,76.22444684108042,84
Nilima Mobile & EV Repairs,Hyderabad,17.413729232746572,78.533700228187,169
Onveer Mobile & EV Repairs,Hyderabad,17.428632676099955,78.48885137375643,168
Henry Mobile & EV Repairs,Chennai,13.095235274211745,80.25779798670735,106
Gautam Mobile & EV Repairs,Chennai,13.07005226615295,80.31455667518046,76
Matthew Mobile & EV Repairs,Bengaluru,13.017003794243086,77.6122694530261,162
Nandini Mobile & EV Repairs,Kochi,9.919744461409906,76.22100165312162,178
Gaurang Mobile & EV Repairs,Chennai,13.048549389965578,80.23062866229111,135
Onkar Mobile & EV Repairs,Bengaluru,12.991346090785544,77.58812984504571,145
Omisha Mobile & EV Repairs,Bengaluru,12.998067192483756,77.58983868281835,169
